{"version": 0.6, "generator": "Overpass API 0.7.62.10 2d4cfc48", "osm3s": {"timestamp_osm_base": "2026-03-07T01:59:37Z", "copyright": "The data included in this document is from www.openstreetmap.org. The data is made available under ODbL."}, "elements": [{"type": "node", "id": 25185956, "lat": 48.9812714, "lon": 8.4062831, "tags": {"addr:city": "Karlsruhe", "addr:housenumber": "9", "addr:postcode": "76199", "addr:street": "Am R\u00fcppurrer Schloss", "amenity": "restaurant", "cuisine": "regional", "name": "Reinhards", "opening_hours": "Tu-Sa 17:00-22:00+; Su 12:00-22:00+", "outdoor_seating": "yes", "phone": "+49 721 4700 2363", "website": "https://reinhards-restaurant.jimdosite.com/", "website:menu": "http://download.studio-lp.de/_ftp/Speisekarte_11-24_web.pdf"}}, {"type": "node", "id": 25186140, "lat": 48.9679044, "lon": 8.4118915, "tags": {"addr:city": "Karlsruhe", "addr:housenumber": "36", "addr:postcode": "76199", "addr:street": "Tulpenstra\u00dfe", "amenity": "restaurant", "contact:email": "tcr-restaurant@web.de", "contact:facebook": "https://www.facebook.com/Restaurant.am.TCR", "contact:phone": "+49 721 85143155", "contact:website": "https://tcr-restaurant.de", "cuisine": "mediterranean;regional", "diet:vegetarian": "yes", "name": "TCR Restaurant", "opening_hours": "Tu-Su 17:00-22:00, Su 12:00-14:30; Mo off", "opening_hours:signed": "no", "outdoor_seating": "yes", "reservation": "yes", "website": "https://www.tcr.de/Restaurant", "website:menu": "https://tcr-restaurant.de/speisekarte/", "wheelchair": "limited"}}, {"type": "node", "id": 25186378, "lat": 48.9660271, "lon": 8.4038747, "tags": {"branch": "R\u00fcppurr", "brand": "Penny", "brand:wikidata": "Q284688", "brand:wikipedia": "en:Penny (supermarket)", "diet:kosher": "no", "name": "PENNY", "opening_hours": "Mo-Sa 07:30-21:00; Su,PH off", "shop": "supermarket", "supermarket": "discount", "toilets:wheelchair": "no", "wheelchair": "yes"}}, {"type": "node", "id": 25241979, "lat": 48.9970219, "lon": 8.3606633, "tags": {"addr:city": "Karlsruhe", "addr:housenumber": "15", "addr:postcode": "76185", "addr:street": "Herrmann-Leichtlin-Stra\u00dfe", "brand": "NORMA", "brand:wikidata": "Q450180", "check_date": "2025-11-16", "check_date:opening_hours": "2025-11-16", "internet_access": "no", "name": "NORMA", "opening_hours": "Mo-Sa 07:00-20:00; Su,PH off", "payment:mastercard": "yes", "payment:visa": "yes", "shop": "supermarket", "website": "http://www.norma-online.de/", "wheelchair": "yes"}}, {"type": "node", "id": 25242049, "lat": 49.0046245, "lon": 8.3412621, "tags": {"addr:city": "Karlsruhe", "addr:country": "DE", "addr:housenumber": "33", "addr:postcode": "76185", "addr:street": "Kornweg", "addr:suburb": "Gr\u00fcnwinkel", "alt_name": "Restaurant an der Appenm\u00fchle", "amenity": "restaurant", "check_date": "2025-10-22", "email": "hello@appenmuehle.de", "indoor_seating": "yes", "name": "Appenm\u00fchle", "opening_hours": "We-Sa 17:00-22:00; Su 11:30-21:00", "outdoor_seating": "yes", "phone": "+49 15566 123456", "website": "https://die-appenmuehle.eatbu.com", "website:menu": "https://cdn.website.dish.co/media/5d/e0/9638626/Speisekarte.pdf"}}, {"type": "node", "id": 25242198, "lat": 49.0077438, "lon": 8.3562292, "tags": {"addr:city": "Karlsruhe", "addr:country": "DE", "addr:housenumber": "6", "addr:postcode": "76185", "addr:street": "Durmersheimer Stra\u00dfe", "amenity": "restaurant", "beer_garden": "yes", "contact:email": "info@schupi.de", "contact:phone": "+49 721 551220", "contact:website": "https://schupi.de/restaurant/", "cuisine": "german", "indoor_seating": "yes", "name": "Beim Schupi", "opening_hours": "Mo-Sa 17:00+; May-Sep Mo-Sa 16:00+; Su,PH 12:00+", "outdoor_seating": "yes", "payment:cards": "yes", "payment:cash": "yes", "toilets:wheelchair": "yes", "wheelchair": "yes"}}, {"type": "node", "id": 25242287, "lat": 48.9901327, "lon": 8.386191, "tags": {"addr:city": "Karlsruhe", "addr:country": "DE", "addr:housenumber": "14", "addr:postcode": "76135", "addr:street": "Sankt-Florian-Stra\u00dfe", "addr:suburb": "Beiertheim-Bulach", "amenity": "restaurant", "check_date:opening_hours": "2024-06-29", "contact:email": "info@s-haeusle.de", "contact:phone": "+49 721 861450", "contact:website": "https://tsv-bulach.de/s-haeusle/", "cuisine": "german", "name": "s'H\u00e4usle", "opening_hours": "Tu-Su 17:00-22:00", "outdoor_seating": "yes", "wheelchair": "limited"}}, {"type": "node", "id": 25308596, "lat": 49.0350437, "lon": 8.4444335, "tags": {"barrier": "bollard", "bollard": "removable"}}, {"type": "node", "id": 25311867, "lat": 49.0190277, "lon": 8.4279596, "tags": {"access:covid19": "no", "addr:city": "Karlsruhe", "addr:country": "DE", "addr:housenumber": "24", "addr:postcode": "76131", "addr:street": "Hagsfelder Allee", "amenity": "restaurant", "brewery": "Alpirsbacher Klosterbr\u00e4u", "cuisine": "regional", "cuisine:description": "gut b\u00fcrgerliche K\u00fcche", "diet:vegetarian": "no", "email": "mitikrobert61@gmail.com", "name": "Zum Spatenstich", "opening_hours": "Th-Fr 11:30-14:00, 17:00-21:00, Sa 11:30-22:00", "operator": "Kleingartenverein Hagsfelder Allee e.V.", "outdoor_seating": "yes", "phone": "+497196143131", "takeaway:covid19": "yes", "website": "https://zum-spatenstich.eatbu.com/?lang=de"}}, {"type": "node", "id": 25312115, "lat": 49.0125481, "lon": 8.4504571, "tags": {"addr:city": "Karlsruhe", "addr:country": "DE", "addr:housenumber": "4", "addr:postcode": "76139", "addr:street": "Kleing\u00e4rtnerweg", "alt_name": "Rosenst\u00fcble", "amenity": "restaurant", "brewery": "Moninger", "check_date": "2018-11", "contact:website": "http://kloistoibacher.de/", "cuisine": "regional", "kitchen_hours": "Mo,Tu off; We-Sa 12:00-14:00,17:00-22:00; Su 12:00-14:00,17:00-21:00", "name": "Deurer's Kloistoibacher im Rosenst\u00fcble", "opening_hours": "Mo,Tu off; We-Sa 12:00-14:00,17:00-22:00; Su 12:00-14:00,17:00-21:00; Mar 01-Sep 30 We-Sa 12:00-22:00; Mar 01-Sep 30 Su 12:00-21:00", "outdoor_seating": "yes", "start_date": "2019-01-09"}}, {"type": "node", "id": 25312120, "lat": 49.0136976, "lon": 8.4507993, "tags": {"addr:city": "Karlsruhe", "addr:country": "DE", "addr:housenumber": "5", "addr:postcode": "76139", "addr:street": "Kleing\u00e4rtnerweg", "addr:suburb": "Rintheim", "amenity": "restaurant", "brewery": "Riegeler Bier", "contact:phone": "+49 721 6268491", "name": "Zum Gockler", "opening_hours": "Mo off; Tu-Su 11:00-22:00"}}, {"type": "node", "id": 25313742, "lat": 49.0421896, "lon": 8.4434916, "tags": {"addr:city": "Karlsruhe", "addr:country": "DE", "addr:housenumber": "16", "addr:postcode": "76139", "addr:street": "Elbinger Stra\u00dfe", "addr:suburb": "Waldstadt", "brand": "Netto Marken-Discount", "brand:wikidata": "Q879858", "brand:wikipedia": "de:Netto Marken-Discount", "check_date": "2023-09-03", "check_date:opening_hours": "2024-02-25", "level": "0", "name": "Netto Marken-Discount", "opening_hours": "Mo-Sa 07:00-21:00; PH,Su off", "operator": "Netto Marken-Discount AG & Co. KG", "payment:cash": "yes", "payment:girocard": "yes", "payment:maestro": "yes", "payment:mastercard": "yes", "payment:v_pay": "yes", "payment:visa": "yes", "shop": "supermarket", "surveillance": "indoor", "website": "https://www.netto-online.de/filialen/Karlsruhe/Elbinger-Str-16/7926/", "wheelchair": "limited"}}, {"type": "node", "id": 25313988, "lat": 49.0378556, "lon": 8.4381576, "tags": {"addr:city": "Karlsruhe", "addr:country": "DE", "addr:housenumber": "16a", "addr:postcode": "76139", "addr:street": "Insterburger Stra\u00dfe", "addr:suburb": "Waldstadt", "amenity": "restaurant", "check_date:opening_hours": "2024-04-23", "cuisine": "indian", "diet:non-vegetarian": "yes", "diet:vegan": "yes", "diet:vegetarian": "yes", "name": "Athidhi", "opening_hours:signed": "no", "outdoor_seating": "yes", "phone": "+49 6222 3185353", "start_date": "2024-05-26", "takeaway": "yes", "website": "https://athidhi.de/athidhikarlsruhe-2/", "website:menu": "https://athidhi.de/athidhi-karlsruhe-speisekarte/"}}, {"type": "node", "id": 25314005, "lat": 49.0355801, "lon": 8.4352873, "tags": {"addr:city": "Karlsruhe", "addr:country": "DE", "addr:housenumber": "14a", "addr:postcode": "76139", "addr:street": "Schneidem\u00fchler Stra\u00dfe", "addr:suburb": "Waldstadt", "branch": "Waldstadt", "brand": "Penny", "brand:wikidata": "Q284688", "brand:wikipedia": "en:Penny (supermarket)", "cash_withdrawal": "girocard", "cash_withdrawal:type": "checkout", "check_date:opening_hours": "2025-06-04", "dog": "no", "level": "0", "name": "PENNY", "opening_hours": "Mo-Sa 07:30-21:00; Su,PH off", "payment:american_express": "yes", "payment:cash": "yes", "payment:girocard": "yes", "payment:maestro": "yes", "payment:mastercard": "yes", "payment:v_pay": "yes", "payment:visa": "yes", "shop": "supermarket", "supermarket": "discount", "surveillance": "indoor", "wheelchair": "yes"}}, {"type": "node", "id": 25346156, "lat": 49.0448069, "lon": 8.3948349, "tags": {"addr:city": "Karlsruhe", "addr:housenumber": "2", "addr:postcode": "76149", "addr:street": "An der Vogelhardt", "branch": "Kirchfeld", "brand": "PENNY", "brand:wikidata": "Q284688", "name": "PENNY Kirchfeld", "opening_hours": "Mo-Sa 07:30-21:00; Su,PH off", "phone": "+49 180 3 331010", "shop": "supermarket", "supermarket": "discounter", "wheelchair": "yes"}}, {"type": "node", "id": 25397906, "lat": 49.0258565, "lon": 8.4383286, "tags": {"addr:city": "Karlsruhe", "addr:country": "DE", "addr:housenumber": "7-9", "addr:postcode": "76131", "addr:street": "Am Sportpark", "addr:suburb": "Hagsfeld", "alt_name": "Karlsruher Sportverein", "amenity": "restaurant", "brewery": "Hoepfner", "name": "KSV-Clubhaus", "note": "Adresse steht so am Geb\u00e4ude", "operator": "Karlsruher Sportverein Rintheim-Waldstadt e.V.", "outdoor_seating": "yes", "source:addr": "survey", "website": "https://karlsruher-sv.de/", "wheelchair": "no"}}, {"type": "node", "id": 25508380, "lat": 48.9525046, "lon": 8.5181549, "tags": {"addr:city": "Karlsruhe", "addr:housenumber": "3", "addr:postcode": "76228", "addr:street": "Zum Sportzentrum", "addr:suburb": "Stupferich", "amenity": "restaurant", "contact:email": "reservierung@aubrac-restaurant.de", "contact:facebook": "http://facebook.com/aubrac.stupferich", "contact:instagram": "https://www.instagram.com/aubrac.restaurant/", "contact:phone": "+49 721 474 552", "contact:tiktok": "https://www.tiktok.com/@aubrac.restaurant", "contact:website": "https://www.aubrac-restaurant.de/", "contact:youtube": "https://www.youtube.com/@AubracRestaurant", "cuisine": "regional", "name": "Aubrac Restaurant & Terrasse", "opening_hours": "Mo-Tu 11:30-14:30,17:00-23:00; We off; Th-Su 11:30-14:30,17:00-23:00", "operator": "Roger Nagler", "operator:type": "private", "start_date": "2023-10-16", "wheelchair": "yes"}}, {"type": "node", "id": 25581225, "lat": 49.0089396, "lon": 8.4691057, "tags": {"addr:city": "Karlsruhe", "addr:country": "DE", "addr:housenumber": "1", "addr:postcode": "76227", "addr:street": "Untere Hub", "addr:suburb": "Durlach", "amenity": "restaurant", "contact:email": "kontakt@hubraum-durlach.de", "contact:phone": "+49 721 75969929", "contact:website": "https://www.hubraum-durlach.de/", "name": "hubRaum", "note": "Kein \"klassisches\" Restaurant, vielmehr eine Event-Location", "toilets:wheelchair": "no", "wheelchair": "limited"}}, {"type": "node", "id": 25642572, "lat": 48.9897253, "lon": 8.351368, "tags": {"addr:city": "Karlsruhe", "addr:country": "DE", "addr:housenumber": "100", "addr:postcode": "76189", "addr:street": "Hohlohstra\u00dfe", "addr:suburb": "Gr\u00fcnwinkel", "amenity": "restaurant", "check_date:opening_hours": "2024-06-12", "contact:email": "info@siedlerheimrestaurant.de", "contact:phone": "+49 721 571892", "contact:website": "https://siedlerheimrestaurant.de/", "cuisine": "greek", "lunch": "yes", "name": "Siedlerheim", "opening_hours": "Mo off; Tu-Fr 11:30-15:00,17:00-22:00; Sa,Su,PH 11:30-22:00", "operator": "Familie Varsamis/Papageorgopoulou Vaia", "outdoor_seating": "yes", "takeaway": "yes", "toilets:wheelchair": "no", "wheelchair": "yes"}}, {"type": "node", "id": 25642631, "lat": 48.9953078, "lon": 8.3518779, "tags": {"addr:city": "Karlsruhe", "addr:housenumber": "22", "addr:postcode": "76189", "addr:street": "Bernsteinstra\u00dfe", "amenity": "restaurant", "cuisine": "german;balkan", "lunch": "yes", "name": "Restaurant Bernstein", "opening_hours": "We-Su 11:30-14:00,17:00-23:30; Sa 17:00-23:30", "phone": "+49 721 573210", "toilets:wheelchair": "no", "website": "http://www.restaurantbernstein.com", "wheelchair": "yes"}}, {"type": "node", "id": 25642801, "lat": 48.9941012, "lon": 8.3629915, "tags": {"addr:city": "Karlsruhe", "addr:country": "DE", "addr:housenumber": "5", "addr:postcode": "76189", "addr:street": "Joachim-Kurzaj-Weg", "amenity": "restaurant", "brewery": "F\u00fcrstenberg", "contact:email": "kontakt@saloniki-karlsruhe.com", "contact:phone": "+49 721 573898", "contact:website": "https://saloniki-karlsruhe.com/", "cuisine": "greek", "name": "Saloniki", "opening_hours": "Mo off; Tu-Sa 17:00-22:00; Su,PH 11:00-22:00", "operator": "Anastasios Madikides", "toilets:wheelchair": "no", "wheelchair": "yes"}}, {"type": "node", "id": 25932431, "lat": 49.0107489, "lon": 8.4234496, "tags": {"addr:city": "Karlsruhe", "addr:country": "DE", "addr:housenumber": "2", "addr:postcode": "76131", "addr:street": "Rintheimer Stra\u00dfe", "amenity": "restaurant", "check_date:opening_hours": "2023-08-17", "cuisine": "italian_pizza", "diet:vegan": "no", "diet:vegetarian": "yes", "indoor_seating": "yes", "name": "Ristorante Pizzahaus Oststadt", "opening_hours": "Mo-Su,PH 11:30-14:30, Mo-Su 18:00-23:00", "outdoor_seating": "no", "phone": "+49721693411", "smoking": "no", "toilets": "yes", "toilets:wheelchair": "yes", "wheelchair": "limited"}}, {"type": "node", "id": 25948748, "lat": 49.0366138, "lon": 8.3919793}, {"type": "node", "id": 25948749, "lat": 49.0367966, "lon": 8.3922763}, {"type": "node", "id": 25967634, "lat": 49.0254014, "lon": 8.3973476, "tags": {"addr:city": "Karlsruhe", "addr:country": "DE", "addr:housenumber": "32", "addr:postcode": "76131", "addr:street": "Adenauerring", "amenity": "restaurant", "contact:email": "info@restaurant-treffpunkt1721.de", "contact:phone": "+49 721 92099668", "contact:website": "https://www.treffpunkt1721.de/", "cuisine": "balkan", "name": "Treffpunkt 1721", "opening_hours": "Tu-Fr 11:30-14:00, 17:00-22:00; Sa 11:00-22:00; Su 11:00-21:00", "outdoor_seating": "yes", "wheelchair": "yes"}}, {"type": "node", "id": 25970523, "lat": 49.000575, "lon": 8.4453973, "tags": {"addr:city": "Karlsruhe", "addr:country": "DE", "addr:housenumber": "30", "addr:postcode": "76227", "addr:street": "Mastweidenweg", "addr:suburb": "Durlach", "amenity": "restaurant", "check_date:opening_hours": "2023-10-21", "contact:email": "Kosoner84@gmail.com", "contact:phone": "+49 721 94545201", "contact:website": "https://mastweide-karlsruhe.metro.rest/", "name": "Gastst\u00e4tte Mastweide", "opening_hours": "Apr-Oct: Mo,Tu 15:00+; We off; Th,Fr 15:00+; Sa,Su,PH 12:00+; Nov-Mar: Mo-We off; Th-Su,PH 12:00+", "operator": "Soner K\u00f6roglu"}}, {"type": "node", "id": 26005518, "lat": 48.9999112, "lon": 8.3387393, "tags": {"brand": "PENNY", "brand:wikidata": "Q284688", "check_date:opening_hours": "2021-05-19", "name": "PENNY", "opening_hours": "Mo-Sa 07:30-21:00; PH off", "shop": "supermarket", "wheelchair": "yes"}}, {"type": "node", "id": 26064550, "lat": 49.046878, "lon": 8.3685715, "tags": {"amenity": "restaurant", "contact:phone": "+49 721 705238", "contact:website": "https://www.beigiovanni.de/", "cuisine": "german;international", "delivery": "yes", "description": "Restaurant der FC Germania Neureut 07", "name": "Bei Giovanni", "opening_hours": "Tu-Th 11:30-14:30,17:00-23:00; Sa-Su 11:00-23:00; Mo off", "wheelchair": "limited"}}, {"type": "node", "id": 26291930, "lat": 49.0356567, "lon": 8.4445979, "tags": {"automatic_door": "yes", "entrance": "main", "wheelchair": "yes"}}, {"type": "node", "id": 26292081, "lat": 49.0408131, "lon": 8.4558827, "tags": {"addr:city": "Karlsruhe", "addr:country": "DE", "addr:housenumber": "1", "addr:postcode": "76139", "addr:street": "An der Feldsh\u00fctte", "addr:suburb": "Hagsfeld", "alt_name": "Feldsh\u00fctte", "amenity": "restaurant", "contact:email": "RestaurantKreta@gmx.de", "contact:fax": "+49 721 2041327", "contact:phone": "+49 721 2041328", "cuisine": "german;greek", "name": "Kreta", "opening_hours": "Mo off; Tu-Fr 16:00-23:00; Sa,Su 12:00-23:00", "operator": "Vasileios Bempos", "outdoor_seating": "yes", "takeaway": "yes", "wheelchair": "limited"}}, {"type": "node", "id": 26292097, "lat": 49.023578, "lon": 8.3954656, "tags": {"addr:city": "Karlsruhe", "addr:country": "DE", "addr:housenumber": "36", "addr:postcode": "76131", "addr:street": "Adenauerring", "amenity": "restaurant", "brewery": "Moninger", "contact:instagram": "chickenhouseka_", "cuisine": "chicken", "name": "Chickenhouse", "opening_hours": "Mo off; Tu-Th 17:00-22:30; Fr 17:00-23:00; Sa 16:00-23:00; Su,PH 12:00-22:00", "payment:cash": "only", "start_date": "2025-09-10", "wheelchair": "yes"}}, {"type": "node", "id": 26940248, "lat": 48.9984109, "lon": 8.465936, "tags": {"addr:city": "Karlsruhe", "addr:country": "DE", "addr:housenumber": "16", "addr:postcode": "76227", "addr:street": "Amalienbadstra\u00dfe", "addr:suburb": "Durlach", "amenity": "restaurant", "beer_garden": "yes", "check_date": "2025-10-03", "contact:email": "durlach@vogelbraeu.de", "contact:fax": "+49 721 81968-22", "contact:phone": "+49 721 81968-0", "contact:website": "https://www.vogelbraeu.de/", "cuisine": "regional", "diet:vegetarian": "yes", "indoor_seating": "yes", "microbrewery": "yes", "name": "Vogel Hausbr\u00e4u Durlach", "note": "Au\u00dfer Haus Verkauf nur f\u00fcr Bier im Siphon", "note:en": "Off-trade sales for beer in siphons only", "opening_hours": "Su-Th 10:00-24:00, Fr,Sa 10:00-01:00", "opening_hours:covid19": "Mo-Su 15:00-19:00", "operator": "der Vogelbr\u00e4u GmbH", "outdoor_seating": "yes", "reg_name": "Vogel Durlach", "takeaway": "yes", "takeaway:covid19": "only", "toilets:wheelchair": "yes", "wheelchair": "yes"}}, {"type": "node", "id": 26940286, "lat": 48.9970097, "lon": 8.4594268, "tags": {"addr:city": "Karlsruhe", "addr:country": "DE", "addr:housenumber": "1", "addr:postcode": "76227", "addr:street": "Hildebrandstra\u00dfe", "amenity": "restaurant", "check_date:opening_hours": "2025-07-28", "cuisine": "asian;vietnamese", "diet:vegetarian": "yes", "fax": "+49 721 4768972", "indoor_seating": "yes", "microbrewery": "no", "name": "Asia Gourmet", "opening_hours": "Mo-Fr 11:30-15:00,17:00-22:30; Sa 17:00-22:30; Su,PH 12:00-15:00,17:00-22:30", "outdoor_seating": "no", "phone": "+49 721 7918341", "wheelchair": "no"}}, {"type": "node", "id": 26963741, "lat": 48.9850603, "lon": 8.4394002, "tags": {"addr:city": "Karlsruhe", "addr:housenumber": "1", "addr:postcode": "76227", "addr:street": "Erlachseeweg", "alt_name": "Sportgastst\u00e4tte Oberwaldstadion", "amenity": "restaurant", "contact:email": "dasclubhouse@spvgg-durlach-aue.de", "contact:phone": "+49 721 79075888", "contact:website": "https://www.dasclubhouse.de/", "diet:vegetarian": "yes", "name": "Das Club House", "official_name": "Das Club House Durlach Aue GmbH", "opening_hours": "Tu-Fr 17:00+; Sa,Su 12:00+; Mo off", "smoking": "isolated", "toilets:wheelchair": "yes", "wheelchair": "yes"}}, {"type": "node", "id": 26989780, "lat": 49.0025078, "lon": 8.4645104}, {"type": "node", "id": 26989781, "lat": 49.0026093, "lon": 8.4647598}, {"type": "node", "id": 27159164, "lat": 48.9694891, "lon": 8.3904062, "tags": {"addr:city": "Karlsruhe", "addr:country": "DE", "addr:housenumber": "2", "addr:postcode": "76199", "addr:street": "Brunnenst\u00fcckweg", "amenity": "restaurant", "contact:email": "kontakt@gaststaette-sg-rueppurr.de", "contact:phone": "+49 721 881715", "contact:website": "https://www.gaststaette-sg-rueppurr.de/", "cuisine": "german", "name": "Gastst\u00e4tte SG R\u00fcppurr", "opening_hours": "Mo off; Tu-Fr 17:00-23:00; Sa 12:00-23:00; Su 12:00-21:30", "opening_hours:signed": "yes", "outdoor_seating": "yes", "payment:cards": "no", "payment:cash": "only", "takeaway": "yes", "toilets": "yes", "toilets:access": "permissive"}}, {"type": "node", "id": 28342027, "lat": 49.0101765, "lon": 8.3789005}, {"type": "node", "id": 28342028, "lat": 49.0101798, "lon": 8.3792393}, {"type": "node", "id": 28342029, "lat": 49.0099674, "lon": 8.3792073}, {"type": "node", "id": 28342030, "lat": 49.0099785, "lon": 8.3788773}, {"type": "node", "id": 28390780, "lat": 49.0097246, "lon": 8.3898708, "tags": {"addr:city": "Karlsruhe", "addr:housenumber": "46", "addr:postcode": "76133", "addr:street": "Amalienstra\u00dfe", "amenity": "restaurant", "check_date": "2026-02-12", "check_date:opening_hours": "2025-11-02", "contact:email": "info@punjab-karlsruhe.de", "contact:phone": "+49 721 22127", "contact:website": "https://www.punjab-restaurant.de", "cuisine": "indian", "diet:vegan": "yes", "diet:vegetarian": "yes", "indoor_seating": "yes", "level": "0", "lunch": "yes", "lunch:menu": "Mo-Fr 11:30-14:30; PH off", "name": "Punjab", "opening_hours": "Mo-Su,PH 11:30-14:30,17:30-23:30", "operator": "Karamjit Singh", "outdoor_seating": "yes", "smoking": "no", "website:menu": "https://www.punjab-karlsruhe.de/#mu-restaurant-menu", "wheelchair": "no"}}, {"type": "node", "id": 29009315, "lat": 49.0319153, "lon": 8.4594408, "tags": {"amenity": "restaurant", "created_by": "Potlatch 0.4a", "name": "Adler"}}, {"type": "node", "id": 29019838, "lat": 49.0375923, "lon": 8.3294234, "tags": {"addr:city": "Karlsruhe", "addr:country": "DE", "addr:housenumber": "1a", "addr:postcode": "76187", "addr:street": "Frauenh\u00e4usleweg", "amenity": "restaurant", "check_date": "2022-01-08", "check_date:opening_hours": "2022-01-08", "contact:phone": "+49 721 18054147", "contact:website": "https://www.restaurant-mediterran.com/", "cuisine": "german;mediterranean", "diet:vegetarian": "no", "drive_in": "no", "internet_access": "no", "internet_access:fee": "no", "lunch": "warm", "lunch:warm": "Tu-Fr 11:00-14:30", "microbrewery": "no", "name": "Mediterran", "opening_hours": "Mo off; Tu-Sa 11:30-14:30,17:00-23:00;Su 10:00-22:00; PH 11:30-14:30,17:00-22:00", "operator": "Mladen Kvesic", "outdoor_seating": "yes", "smoking": "no", "toilets": "yes", "toilets:access": "permissive", "toilets:wheelchair": "yes", "wheelchair": "yes"}}, {"type": "node", "id": 29132025, "lat": 49.0172725, "lon": 8.3607269, "tags": {"addr:city": "Karlsruhe", "addr:country": "DE", "addr:housenumber": "18", "addr:postcode": "76185", "addr:street": "Steubenstra\u00dfe", "amenity": "restaurant", "cuisine": "german;mediterranean", "name": "Oberer See", "opening_hours": "Mo,We-Sa 11:00-22:00;Su 10:00-22:00", "phone": "+49 721 81968781", "website": "http://www.oberersee.de", "wheelchair": "yes"}}, {"type": "node", "id": 29948730, "lat": 49.0263455, "lon": 8.4413147, "tags": {"addr:city": "Karlsruhe", "addr:country": "DE", "addr:housenumber": "5", "addr:postcode": "76131", "addr:street": "Am Sportpark", "addr:suburb": "Hagsfeld", "amenity": "restaurant", "contact:email": "events@denkfabrik-ka.de", "contact:phone": "+49 721 93514138", "contact:website": "https://denkfabrik-karlsruhe.de/", "diet:vegan": "yes", "diet:vegetarian": "yes", "indoor_seating": "yes", "name": "Denkfabrik", "old_name": "SSC Sportgastst\u00e4tte am Sportpark", "opening_hours": "PH,Mo-Su 11:00-24:00", "opening_hours:kitchen": "PH,Mo-Su 11:30-22:30", "outdoor_seating": "yes", "payment:contactless": "yes", "payment:credit_cards": "yes", "payment:girocard": "yes", "reservation": "yes", "reservation:website": "https://denkfabrik-karlsruhe.de/reservierung", "toilets:wheelchair": "yes", "website:menu": "https://denkfabrik-karlsruhe.de/files/food-drinks-denkfabrik.pdf", "wheelchair": "yes"}}, {"type": "node", "id": 29949103, "lat": 49.0056774, "lon": 8.4100444, "tags": {"addr:city": "Karlsruhe", "addr:country": "DE", "addr:housenumber": "1", "addr:postcode": "76131", "addr:street": "Mendelssohnplatz", "alt_name": "No17 Fleur de Sel", "alt_name:note": "for search engines as \u2116 often cannot be typed on keyboards", "amenity": "restaurant", "check_date:opening_hours": "2025-10-21", "name": "\u211617 Fleur de Sel", "old_name": "Zum Markgrafen", "old_operator": "Renaissance Karlsruhe Hotel", "opening_hours": "Mo-Su 18:00-22:00", "operator": "Achat Plaza Karlsruhe", "toilets:wheelchair": "yes", "wheelchair": "yes"}}, {"type": "node", "id": 29967304, "lat": 49.0312111, "lon": 8.3409942, "tags": {"amenity": "restaurant", "cuisine": "italian", "name": "Vesuvio", "opening_hours": "Mo-Su 11:30-14:00,17:30-22:30; We off; Sa 17:30-22:30", "opening_hours:kitchen": "Mo-Su 11:30-14:00,17:30-22:00; We off; Sa 17:30-22:00", "phone": "+49 721 567638", "website": "https://ristorante-vesuvio.com", "website:menu": "https://ristorante-vesuvio.com/menu/", "wheelchair": "no"}}, {"type": "node", "id": 29990261, "lat": 49.0086383, "lon": 8.3957504, "tags": {"addr:city": "Karlsruhe", "addr:country": "DE", "addr:housenumber": "63", "addr:postcode": "76133", "addr:street": "Waldstra\u00dfe", "air_conditioning": "yes", "amenity": "restaurant", "bar": "yes", "branch": "Karlsruhe", "brand": "Enchilada", "changing_table": "yes", "check_date:opening_hours": "2025-03-11", "contact:phone": "+49 721 1208885", "contact:website": "https://karlsruhe.enchilada.de/", "cuisine": "mexican", "diet:vegan": "yes", "diet:vegetarian": "yes", "indoor_seating": "yes", "level": "0", "name": "Enchilada", "opening_hours": "Mo-Th 17:00-00:00; Fr 17:00-01:00; Sa 12:00-01:00; Su 12:00-23:00", "operator": "Enchilada Karlsruhe GmbH", "outdoor_seating": "yes", "smoking": "outside", "toilets": "yes", "toilets:wheelchair": "yes", "wheelchair": "limited"}}, {"type": "node", "id": 29991932, "lat": 49.0155358, "lon": 8.3975457, "tags": {"addr:city": "Karlsruhe", "addr:country": "DE", "addr:housenumber": "3", "addr:postcode": "76131", "addr:street": "Willy-Brandt-Allee", "amenity": "cafe", "cuisine": "german", "diet:vegan": "no", "diet:vegetarian": "yes", "indoor_seating": "yes", "name": "Hatz", "old_name": "Cafe Zeitlos", "opening_hours": "Mo-Su 04:30-23:00", "outdoor_seating": "yes", "phone": "+49 721 85 77 11", "toilets": "yes", "toilets:wheelchair": "yes", "website": "http://ich-geh-zum-hatz.de/", "wheelchair": "limited"}}, {"type": "node", "id": 30023107, "lat": 48.9989595, "lon": 8.4100743, "tags": {"addr:city": "Karlsruhe", "addr:housenumber": "60a", "addr:postcode": "76137", "addr:street": "Augartenstra\u00dfe", "amenity": "restaurant", "check_date:opening_hours": "2024-08-02", "contact:email": "caloraffaele@yahoo.de", "contact:phone": "+49 721 3846980", "contact:website": "https://pizzeria-gioia.de/", "cuisine": "pizza", "indoor_seating": "yes", "level": "0", "name": "Gioia", "opening_hours": "Mo-Sa 17:30-22:30; Su off", "operator": "Familie Calo", "outdoor_seating": "yes", "wheelchair": "no"}}, {"type": "node", "id": 30023712, "lat": 48.9978031, "lon": 8.3939863, "tags": {"addr:city": "Karlsruhe", "addr:country": "DE", "addr:housenumber": "12", "addr:postcode": "76137", "addr:street": "Kantstra\u00dfe", "alt_name": "Zum Karlshof", "amenity": "restaurant", "brewery": "Radeberger", "cuisine": "greek;german", "description": "warme K\u00fcche von 11:30\u201322:30", "indoor_seating": "yes", "name": "Panorama", "note": "\"Zum Karlshof\" scheint ein alter Name zu sein, der aber noch am Haus angebracht ist.", "opening_hours": "Mo-Su 11:00-15:00,17:00-24:00", "opening_hours:kitchen": "Mo-Fr 11:30-15:00, 17:00-22:30; Sa 17:00-22:30; Su 11:30-22:30", "outdoor_seating": "yes", "phone": "+49 721 68078539", "website": "http://www.panorama-karlsruhe.eu/", "website:menu": "http://www.panorama-karlsruhe.eu/downloads/speisekarte.pdf", "wheelchair": "limited"}}, {"type": "node", "id": 30023723, "lat": 49.004552, "lon": 8.3839618, "tags": {"addr:postcode": "76135", "amenity": "restaurant", "cuisine": "fish;pasta;fine_dining;italian", "email": "info@quintino-ristorante.de", "name": "Ristorante Quintino", "opening_hours": "Mo-Fr 12:00-14:00,18:00-22:00; Sa 18:00-22:00; Su off", "operator": "Frau Carmelo Ferro Rosa", "phone": "+49 721 848048", "toilets:wheelchair": "no", "website": "http://www.quintino-ristorante.de/", "website:menu": "http://www.quintino-ristorante.de/", "wheelchair": "limited"}}, {"type": "node", "id": 30023728, "lat": 49.0056563, "lon": 8.3830837, "tags": {"addr:housenumber": "218", "addr:postcode": "76135", "addr:street": "Kriegsstra\u00dfe", "air_conditioning": "no", "amenity": "restaurant", "contact:email": "info@walachischer-kessel.de", "contact:phone": "+49 721 40246438", "contact:website": "https://walachischer-kessel.de/", "cuisine": "romanian;german;fish", "indoor_seating": "yes", "name": "Walachischer Kessel", "opening_hours": "Mo-Fr 11:30-15:00,18:00-23:00; Sa 12:00-23:00; Su,PH 12:00-22:00", "outdoor_seating": "yes", "smoking": "outside", "wheelchair": "no"}}, {"type": "node", "id": 30023735, "lat": 49.0074415, "lon": 8.3882024, "tags": {"addr:city": "Karlsruhe", "addr:housenumber": "59b", "addr:postcode": "76133", "addr:street": "Sophienstra\u00dfe", "amenity": "restaurant", "check_date": "2022-11-10", "check_date:opening_hours": "2024-02-23", "diet:halal": "yes", "halal": "yes", "level": "0", "name": "Arena Balkan B\u00e4ckerei", "old_name": "Badischer Hofladen;Pizzeria Centrale", "opening_hours": "Mo-Sa 06:00-21:00; Su 08:00-21:00", "panoramax": "64c2c03f-20a1-4258-89c1-a9e7390386e7", "shop": "bakery", "wheelchair": "no"}}, {"type": "node", "id": 30029831, "lat": 49.0087472, "lon": 8.3762268, "tags": {"addr:city": "Karlsruhe", "addr:country": "DE", "addr:housenumber": "27", "addr:postcode": "76135", "addr:street": "Nelkenstra\u00dfe", "addr:suburb": "Weststadt", "amenity": "restaurant", "beer_garden": "yes", "cuisine": "bavarian", "diet:vegan": "yes", "diet:vegetarian": "yes", "name": "Gasthaus Gutenberg", "opening_hours": "Tu-Fr 11:30-15:00, Sa 10:00-23:00; Su,Mo,PH off, Tu-Fr 16:30-23:00", "outdoor_seating": "yes", "phone": "+49 721 9851516", "short_name": "Gutenberg", "website": "https://www.gasthaus-gutenberg.de/", "wheelchair": "limited"}}, {"type": "node", "id": 30030047, "lat": 49.0107214, "lon": 8.3748618, "tags": {"amenity": "restaurant", "check_date:opening_hours": "2026-02-22", "delivery": "yes", "delivery:partner": "lieferjunkie", "diet:vegetarian": "no", "indoor_seating": "yes", "name": "Hendl Cube", "old_name": "Wienerwald", "opening_hours": "Mo-Su 11:30-21:00", "outdoor_seating": "yes", "smoking": "outside", "website": "https://karlsruhe-kaiserallee.hendlcube.de/", "wheelchair": "no"}}, {"type": "node", "id": 30030051, "lat": 49.0131684, "lon": 8.3746244, "tags": {"addr:city": "Karlsruhe", "addr:country": "DE", "addr:housenumber": "1", "addr:postcode": "76185", "addr:street": "Ludwig-Marum-Stra\u00dfe", "amenity": "restaurant", "cuisine": "indian", "diet:vegan": "yes", "diet:vegetarian": "yes", "name": "Moghul Mahal", "opening_hours": "Mo 18:00-22:30; Tu-Su 11:30-14:30,18:00-22:30", "phone": "+49 721 848282", "toilets:wheelchair": "no", "website": "https://www.moghul-mahal.de/", "wheelchair": "yes"}}, {"type": "node", "id": 30030059, "lat": 49.0150363, "lon": 8.3753537, "tags": {"addr:city": "Karlsruhe", "addr:country": "DE", "addr:housenumber": "79a", "addr:postcode": "76133", "addr:street": "Moltkestra\u00dfe", "amenity": "restaurant", "check_date": "2025-10-10", "contact:phone": "+49 721 859762", "contact:website": "http://www.prontopronto-karlsruhe.de/", "cuisine": "pizza", "delivery": "yes", "diet:vegetarian": "yes", "name": "Pronto Pronto", "opening_hours": "Mo-Sa 11:00-22:30; Su 11:00-22:00", "payment:contactless": "no", "payment:girocard": "no", "payment:mastercard": "no", "payment:visa": "no", "takeaway": "yes", "wheelchair": "limited"}}, {"type": "node", "id": 30030244, "lat": 49.0081887, "lon": 8.3894816, "tags": {"addr:city": "Karlsruhe", "addr:housenumber": "18", "addr:postcode": "76133", "addr:street": "Leopoldstra\u00dfe", "amenity": "restaurant", "brewery": "K\u00f6nig Pilsner", "check_date": "2025-11-07", "contact:email": "eberhardt.sunisa@gmail.com", "contact:phone": "+49 721 1305738;+49 721 60999977", "contact:website": "https://www.bangkok-foodland.com", "cuisine": "thai", "delivery": "yes", "diet:vegan": "no", "diet:vegetarian": "yes", "indoor_seating": "yes", "internet_access": "no", "level": "0", "name": "Bangkok Foodland", "opening_hours": "Mo-Su 11:30-23:00", "outdoor_seating": "yes", "panoramax": "d2bb8743-0c7c-4090-91f8-12feb1b77a7e", "payment:cash": "yes", "payment:credit_cards": "yes", "payment:debit_cards": "yes", "reservation": "yes", "smoking": "no", "takeaway": "yes", "toilets": "yes", "toilets:female": "yes", "toilets:male": "yes", "toilets:unisex": "no", "wheelchair": "no"}}, {"type": "node", "id": 30030260, "lat": 49.0042953, "lon": 8.3978793, "tags": {"addr:city": "Karlsruhe", "addr:country": "DE", "addr:housenumber": "2", "addr:postcode": "76133", "addr:street": "Gartenstra\u00dfe", "addr:suburb": "S\u00fcdweststadt", "amenity": "restaurant", "brewery": "Eichbaum", "capacity": "100", "check_date": "2025-11-15", "check_date:opening_hours": "2025-11-15", "contact:phone": "+49 721 1614963", "contact:website": "http://www.trattoria-da-giovanni.de", "cuisine": "italian", "diet:gluten_free": "yes", "diet:vegetarian": "yes", "level": "0", "name": "Trattoria Da Giovanni", "opening_hours": "Th,Su-Tu 17:30-22:30,12:00-14:00; Sa 17:30-22:30; Fr 17:30-22:30; We off", "payment:cash": "yes", "payment:girocard": "yes", "payment:maestro": "yes", "payment:mastercard": "yes", "payment:mastercard:min_payment": "50", "payment:others": "no", "payment:visa": "yes", "payment:visa:min_payment": "50", "wheelchair": "no"}}, {"type": "node", "id": 30030263, "lat": 49.0040939, "lon": 8.4025582, "tags": {"addr:city": "Karlsruhe", "addr:country": "DE", "addr:housenumber": "2c", "addr:postcode": "76137", "addr:street": "Ettlinger Stra\u00dfe", "amenity": "restaurant", "brewery": "Hoepfner", "cuisine": "italian", "name": "Il Teatro\u00b2", "opening_hours": "Th-Mo 12:00-14:00,18:00-23:00; Tu,We off", "outdoor_seating": "yes", "phone": "+49 721 356566", "website": "https://www.ilteatro.de/", "wheelchair": "yes"}}, {"type": "node", "id": 30030267, "lat": 49.0031279, "lon": 8.4054197, "tags": {"addr:city": "Karlsruhe", "addr:country": "DE", "addr:housenumber": "8", "addr:postcode": "76137", "addr:street": "Wilhelmstra\u00dfe", "amenity": "restaurant", "cuisine": "indian", "delivery": "yes", "diet:vegetarian": "yes", "name": "Thasy Tamil Karlsruhe", "opening_hours": "Mo-Fr 11:00-23:00", "outdoor_seating": "no", "phone": "+49 721 95771241", "takeaway": "yes", "website": "https://www.thasykarlsruhe.de"}}, {"type": "node", "id": 30030268, "lat": 49.0027877, "lon": 8.4056911, "tags": {"addr:housenumber": "17", "addr:street": "Wilhelmstra\u00dfe", "air_conditioning": "no", "amenity": "restaurant", "check_date:opening_hours": "2025-07-16", "cuisine": "thai", "diet:vegetarian": "yes", "name": "Soong Hau", "opening_hours": "Tu-Fr 17:00-22:00; Sa,Su,PH 12:00-24:00+; Mo off", "outdoor_seating": "yes", "website": "http://thai-restaurant-karlsruhe.de/", "website:menu": "http://thai-restaurant-karlsruhe.de/food.php"}}, {"type": "node", "id": 30030269, "lat": 49.0026983, "lon": 8.4057447, "tags": {"addr:city": "Karlsruhe", "addr:country": "DE", "addr:housenumber": "19", "addr:postcode": "76137", "addr:street": "Wilhelmstra\u00dfe", "air_conditioning": "no", "amenity": "restaurant", "check_date": "2025-07-16", "check_date:opening_hours": "2025-07-16", "contact:email": "king-seng@gmx.de", "contact:fax": "+49 721 4998928", "cuisine": "chinese", "diet:vegetarian": "yes", "name": "King Seng", "opening_hours": "Mo-Su 11:30-14:30,17:30-22:00", "phone": "+49 721 38 94 82", "wheelchair": "no"}}, {"type": "node", "id": 30119975, "lat": 48.9688811, "lon": 8.4002587, "tags": {"addr:city": "Karlsruhe", "addr:housenumber": "47", "addr:postcode": "76199", "addr:street": "Lange Stra\u00dfe", "amenity": "restaurant", "check_date": "2025-06-30", "cuisine": "italian", "name": "Zum Lamm - Da Sandro", "opening_hours": "Mo,Tu,Th,Fr 11:30-14:00,17:30-22:00; Sa 17:00-22:00", "outdoor_seating": "yes", "phone": "+49 721 890534", "smoking": "outside", "source": "survey", "takeaway": "yes"}}, {"type": "node", "id": 30119977, "lat": 48.972283, "lon": 8.4034478, "tags": {"addr:city": "Karlsruhe", "addr:country": "DE", "addr:housenumber": "1", "addr:postcode": "76199", "addr:street": "Lange Stra\u00dfe", "amenity": "restaurant", "contact:email": "kontakt@taqueria-taol.de", "contact:phone": "+49 721 20440252", "contact:website": "https://www.taqueria-taol.de/", "cuisine": "mexican", "indoor_seating": "yes", "name": "Taqueria Taol", "old_name": "Kofflers Heuriger Hotel", "opening_hours": "We-Th 16:00-00:00; Fr 16:00-01:00; Sa 10:00-01:00; Su 10:00-00:00; Mo,Tu off", "operator": "El Taquito Gastst\u00e4ttenbetriebs GmbH", "outdoor_seating": "yes", "start_date": "2024-03-13"}}, {"type": "node", "id": 30824582, "lat": 48.997391, "lon": 8.4580897, "tags": {"addr:city": "Karlsruhe", "addr:country": "DE", "addr:housenumber": "38", "addr:postcode": "76227", "addr:street": "Raiherwiesenstra\u00dfe", "addr:suburb": "Durlach", "brand": "REWE", "brand:wikidata": "Q16968817", "brand:wikipedia": "en:REWE", "check_date:opening_hours": "2025-06-11", "diet:gluten_free": "yes", "name": "Rewe Siegbert Ponzer", "opening_hours": "Mo-Sa 07:00-22:00; Su,PH off", "operator": "Siegbert Ponzer", "shop": "supermarket", "toilets:wheelchair": "no", "wheelchair": "yes"}}, {"type": "node", "id": 31150959, "lat": 49.005142, "lon": 8.3501063, "tags": {"addr:housenumber": "1", "addr:street": "Eckenerstra\u00dfe", "amenity": "restaurant", "check_date": "2024-11-09", "contact:email": "rim-wang@mail.de", "contact:phone": "+49 721 697776", "contact:website": "https://www.rimwang.com/", "cuisine": "thai", "indoor_seating": "yes", "lunch": "yes", "name": "Rim Wang", "opening_hours": "We-Sa 12:00-14:30,17:30-23:00; PH,Su 12:00-22:00; Mo,Tu off", "opening_hours:kitchen": "We-Sa 12:00-14:00,17:30-22:00; PH,Su 12:00-21:30; Mo,Tu off", "operator": "Peter Brecht & Bonnchu Choti-Brecht GbR", "outdoor_seating": "yes", "payment:mastercard": "yes", "payment:visa": "yes", "wheelchair": "no"}}, {"type": "node", "id": 31151431, "lat": 49.0189964, "lon": 8.377209, "tags": {"addr:city": "Karlsruhe", "addr:country": "DE", "addr:housenumber": "20", "addr:postcode": "76133", "addr:street": "Knielinger Allee", "amenity": "restaurant", "check_date": "2025-09-20", "check_date:opening_hours": "2025-09-20", "contact:phone": "+49 721 94317222", "contact:website": "https://www.gaertner-huett.de/", "cuisine": "german", "diet:vegan": "no", "diet:vegetarian": "yes", "drive_in": "no", "name": "G\u00e4rtner H\u00fctt", "opening_hours": "Su-Fr 11:00-14:00, Tu,Fr,Su 17:00-18:00+", "wheelchair": "limited", "wifi": "no"}}, {"type": "node", "id": 31261582, "lat": 49.0081716, "lon": 8.4199904, "tags": {"addr:city": "Karlsruhe", "addr:country": "DE", "addr:housenumber": "24", "addr:postcode": "76131", "addr:street": "Durlacher Allee", "addr:suburb": "Oststadt", "amenity": "restaurant", "brewery": "Eichbaum", "check_date": "2025-06-25", "contact:email": "diezwiebel@diezwiebel.net", "contact:phone": "+49 721 7228687", "contact:website": "http://diezwiebel.net/", "cuisine": "burger", "delivery": "yes", "delivery:partner": "Foodora", "diet:vegetarian": "yes", "drink:afri-cola": "yes", "indoor_seating": "yes", "level": "0", "name": "Die Zwiebel", "opening_hours": "Mo-Fr 11:30-14:30,17:00-01:00, Sa 11:30-01:00, Su,PH 17:00-01:00, PH 11:30-17:00 off", "outdoor_seating": "yes", "payment:cash": "yes", "payment:contactless": "yes", "payment:maestro": "yes", "payment:mastercard": "yes", "payment:others": "yes", "payment:visa": "yes", "smoking": "outside", "wheelchair": "no"}}, {"type": "node", "id": 31261876, "lat": 49.0093568, "lon": 8.4238287, "tags": {"addr:city": "Karlsruhe", "addr:housenumber": "2", "addr:postcode": "76131", "addr:street": "Gerwigstra\u00dfe", "amenity": "restaurant", "brewery": "Hoepfner", "contact:phone": "+49 721 66384455", "contact:website": "https://oxford-ost.de/", "cuisine": "burger", "delivery": "no", "diet:vegan": "yes", "diet:vegetarian": "yes", "front_cooking": "no", "indoor_seating": "yes", "level": "0", "name": "Oxford Caf\u00e9 Ost", "old_name": "LiebesBeef", "opening_hours": "Tu-Th, Su 11:30-01:00; Fr, Sa 11:30-02:00", "operator": "Charles Oxford Karlsruhe GmbH", "outdoor_seating": "yes", "payment:credit_cards": "yes", "payment:debit_cards": "yes", "smoking": "outside", "start_date": "2018-05-04", "takeaway": "no", "wheelchair": "no"}}, {"type": "node", "id": 31261877, "lat": 49.0100915, "lon": 8.4283088, "tags": {"addr:city": "Karlsruhe", "addr:country": "DE", "addr:housenumber": "9", "addr:postcode": "76131", "addr:street": "Veilchenstra\u00dfe", "amenity": "restaurant", "check_date": "2025-11-17", "check_date:opening_hours": "2025-05-26", "contact:email": "willkommen@werkbank-karlsruhe.de", "contact:phone": "+49 721 78364711", "contact:website": "http://werkbank-karlsruhe.de", "cuisine": "german;pasta;mediterranean", "diet:vegetarian": "limited", "indoor_seating": "yes", "name": "Werkbank", "opening_hours": "We-Sa 17:30-21:00", "opening_hours:kitchen": "We-Mo 11:30-14:00,18:00-21:00", "outdoor_seating": "no", "toilets:wheelchair": "no", "wheelchair": "yes", "wheelchair:description": "Am Eingang gibt es inzwischen eine t\u00fcrbreite Rampe mit leichter Steigung."}}, {"type": "node", "id": 31262580, "lat": 49.0102424, "lon": 8.407823, "tags": {"amenity": "restaurant", "contact:facebook": "https://www.facebook.com/ilcaminettokarlsruhe/", "contact:phone": "+49 721 380682", "cuisine": "italian", "diet:vegan": "no", "diet:vegetarian": "yes", "name": "Il Caminetto", "opening_hours": "Mo-Fr 11:30-14:30,18:00-22:30; PH 18:00-22:30; Sa,Su off", "operator": "Anna Dlubak", "outdoor_seating": "yes", "smoking": "no", "toilets": "yes", "wheelchair": "no"}}, {"type": "node", "id": 34984249, "lat": 49.0079523, "lon": 8.3181111, "tags": {"addr:city": "Karlsruhe", "addr:country": "DE", "addr:housenumber": "8", "addr:postcode": "76189", "addr:street": "Hohleichweg", "amenity": "restaurant", "changing_table": "yes", "changing_table:location": "female_toilet", "contact:facebook": "https://www.facebook.com/beimiri", "contact:website": "http://www.beimiri.de/", "cuisine": "regional;croatian", "level": "0", "name": "Naturfreundehaus Rheinwaldh\u00fctte", "operator": "NaturFreunde Deutschland", "ref": "L 064", "source": "Datenspende der NaturFreunde Deutschland;survey", "table_service": "no", "toilets": "yes", "toilets:disposal": "flush", "toilets:female": "yes", "toilets:male": "yes", "toilets:unisex": "no", "toilets:wheelchair": "yes", "wheelchair": "yes"}}, {"type": "node", "id": 38873423, "lat": 48.9953859, "lon": 8.3885949, "tags": {"addr:city": "Karlsruhe", "addr:country": "DE", "addr:housenumber": "40", "addr:postcode": "76137", "addr:street": "Ebertstra\u00dfe", "brand": "Nahkauf", "brand:wikidata": "Q57515238", "check_date:opening_hours": "2026-03-05", "contact:phone": "+49 721 9812014", "name": "Nahkauf Dittes", "opening_hours": "Mo-Fr 08:00-20:00; Sa 08:00-16:00", "payment:cash": "yes", "payment:contactless": "yes", "shop": "supermarket", "surveillance": "indoor", "wheelchair": "yes", "wheelchair:description": "Rollstuhlrampe, automatische T\u00fcr und Schleuse;eher schmale G\u00e4nge im Laden;Lieferservice f\u00fcr Eink\u00e4ufe"}}, {"type": "node", "id": 41263095, "lat": 49.0057013, "lon": 8.3722808, "tags": {"addr:city": "Karlsruhe", "addr:country": "DE", "addr:housenumber": "276", "addr:postcode": "76135", "addr:street": "Kriegsstra\u00dfe", "addr:suburb": "Weststadt", "amenity": "restaurant", "brewery": "Hoepfner", "check_date": "2025-07-21", "contact:email": "hallo@rote-taube.de", "contact:phone": "+49 721 855117", "contact:website": "https://www.rote-taube.de/", "cuisine": "international", "diet:vegan": "no", "diet:vegetarian": "yes", "name": "Rote Taube", "opening_hours": "Mo-Su,PH 17:00-01:00", "operator": "Tobias Meier", "outdoor_seating": "yes", "wheelchair": "limited"}}, {"type": "node", "id": 52664989, "lat": 49.0437218, "lon": 8.3919549, "tags": {"amenity": "restaurant", "name": "Restaurant Panoramic", "opening_hours": "\"Ge\u00f6ffnet nur mit vorheriger Reservierung\""}}, {"type": "node", "id": 53972837, "lat": 49.0139471, "lon": 8.4010799, "tags": {"addr:city": "Karlsruhe", "addr:country": "DE", "addr:housenumber": "6", "addr:postcode": "76131", "addr:street": "Schlossbezirk", "amenity": "restaurant", "indoor_seating": "yes", "name": "Badische Weinstuben", "opening_hours": "\"\u00d6ffnet 11:30, schlie\u00dft Saison abh\u00e4ngig.\"", "outdoor_seating": "yes", "smoking": "outside", "website": "https://badische-weinstuben.de/", "wheelchair": "no"}}, {"type": "node", "id": 55438653, "lat": 49.0451463, "lon": 8.3828405, "tags": {"addr:city": "Karlsruhe", "addr:country": "DE", "addr:housenumber": "34", "addr:postcode": "76149", "addr:street": "Gr\u00fcnewaldstra\u00dfe", "addr:suburb": "Neureut", "branch": "Rees", "brand": "Edeka", "brand:wikidata": "Q701755", "brand:wikipedia": "de:Edeka", "check_date:opening_hours": "2025-04-27", "email": "info@edeka-rees.de", "fax": "+49 721 9785823", "name": "Edeka Rees", "opening_hours": "Mo-Sa 08:00-21:00; Su,PH off", "operator": "Edeka Rees", "organic": "yes", "phone": "+49 721 78317270", "shop": "supermarket", "start_date": "2021-03-10", "website": "https://www.edeka-rees.de/unsere-maerkte/neureut/?modul=42&filiale=268", "wheelchair": "yes"}}, {"type": "node", "id": 55438966, "lat": 49.0448168, "lon": 8.3832323, "tags": {"addr:city": "Karlsruhe", "addr:country": "DE", "addr:postcode": "76149", "amenity": "restaurant", "check_date": "2023-12-09", "contact:phone": "+49 721 785188", "diet:vegan": "no", "diet:vegetarian": "yes", "name": "Badnerland", "opening_hours": "Tu-Sa 11:00-14:30,17:00-23:00; Su 11:00-21:00", "website": "https://restaurant-badnerland.com/", "wheelchair": "no"}}, {"type": "node", "id": 59172382, "lat": 48.9773426, "lon": 8.3925335, "tags": {"addr:city": "Karlsruhe", "addr:country": "DE", "addr:housenumber": "3", "addr:postcode": "76199", "addr:street": "Gottlob-Schreber-Weg", "addr:suburb": "Weiherfeld-Dammerstock", "amenity": "restaurant", "contact:email": "info@gartenzwerg-karlsruhe.de", "contact:fax": "+49 721 8931149", "contact:phone": "+49 721 8931150", "contact:website": "http://www.gartenzwerg-karlsruhe.de/", "cuisine": "greek", "indoor_seating": "yes", "name": "Gartenzwerg", "opening_hours": "Mo-Su,PH 11:30-22:30", "operator": "Theo Parcharidis", "outdoor_seating": "yes", "toilets:wheelchair": "no", "wheelchair": "limited"}}, {"type": "node", "id": 60019232, "lat": 49.0107008, "lon": 8.3984971, "tags": {"addr:city": "Karlsruhe", "addr:country": "DE", "addr:housenumber": "14-18", "addr:postcode": "76133", "addr:street": "Waldstra\u00dfe", "brand": "Aldi S\u00fcd", "brand:wikidata": "Q41171672", "name": "Aldi S\u00fcd", "opening_hours": "Mo-Sa 08:00-20:00; Su,PH off", "shop": "supermarket", "supermarket": "discount", "website": "https://filialen.aldi-sued.de/baden-wuerttemberg/karlsruhe/waldstrasse-14-18", "wheelchair": "yes"}}, {"type": "node", "id": 60019472, "lat": 49.0116929, "lon": 8.3992311, "tags": {"amenity": "cafe", "check_date:opening_hours": "2024-03-14", "cuisine": "italian", "internet_access": "wlan", "name": "Mama's Caf\u00e9", "old_name": "La Prima", "opening_hours": "Mo-Tu 09:00-18:00; We-Sa 09:00-22:00; Su 10:00-16:00", "opening_hours:signed": "no", "website": "https://mamas-cafe.de/", "wheelchair": "no"}}, {"type": "node", "id": 60133921, "lat": 49.0538697, "lon": 8.3923344, "tags": {"addr:city": "Karlsruhe", "addr:country": "DE", "addr:housenumber": "1", "addr:postcode": "76149", "addr:street": "Hermann-H\u00f6pker-Aschoff-Stra\u00dfe", "addr:suburb": "Neureut", "branch": "Siegbert Ponzer", "brand": "REWE", "brand:wikidata": "Q16968817", "check_date:opening_hours": "2023-03-25", "drink:club-mate": "yes", "level": "0", "name": "Rewe Siegbert Ponzer", "opening_hours": "Mo-Sa 07:00-22:00; Su,PH off", "operator": "REWE Ponzer GmbH & Co. oHG", "payment:cash": "yes", "payment:contactless": "yes", "payment:girocard": "yes", "payment:mastercard": "yes", "payment:others": "yes", "payment:visa": "yes", "shop": "supermarket", "wheelchair": "yes"}}, {"type": "node", "id": 60247330, "lat": 49.0506626, "lon": 8.3809563, "tags": {"amenity": "restaurant", "name": "Sonnenhof"}}, {"type": "node", "id": 60247928, "lat": 49.0535104, "lon": 8.383718, "tags": {"addr:city": "Karlsruhe", "addr:housenumber": "30", "addr:postcode": "76149", "addr:street": "Teutschneureuter Stra\u00dfe", "amenity": "restaurant", "check_date:opening_hours": "2024-08-21", "contact:email": "info@dk-neureut.de", "contact:phone": "+49 178 1888551", "contact:website": "https://www.deutscher-kaiser-neureut.de/", "cuisine": "german;regional", "name": "Deutscher Kaiser", "opening_hours": "Th-Mo 17:30-24:00, Su 11:30-15:00,17:30-24:00", "operation": "Fam. Grimberger", "outdoor_seating": "yes", "tourism": "guest_house"}}, {"type": "node", "id": 60247929, "lat": 49.0551871, "lon": 8.3813285, "tags": {"addr:city": "Karlsruhe", "addr:country": "DE", "addr:housenumber": "300", "addr:postcode": "76149", "addr:street": "Neureuter Hauptstra\u00dfe", "amenity": "restaurant", "check_date": "2025-07-13", "cuisine": "greek;italian", "internet_access": "wlan", "internet_access:fee": "no", "level": "0", "name": "Lemoni", "opening_hours": "Mo-Tu,Th-Sa 17:00-23:00; Su 12:00-22:00; PH 12:00-22:00", "outdoor_seating": "yes", "payment:cash": "yes", "payment:credit_cards": "yes", "payment:debit_cards": "yes", "takeaway": "yes", "toilets": "yes", "toilets:access": "customers", "website": "https://www.restaurant-lemoni-karlsruhe.de/", "website:menu": "https://www.restaurant-lemoni-karlsruhe.de/menue/", "wheelchair": "no"}}, {"type": "node", "id": 69119726, "lat": 49.0014604, "lon": 8.3969911, "tags": {"addr:city": "Karlsruhe", "addr:country": "DE", "addr:housenumber": "18a", "addr:postcode": "76137", "addr:street": "Beiertheimer Allee", "amenity": "restaurant", "changing_table": "yes", "check_date:opening_hours": "2025-12-09", "contact:phone": "+49 721 34044", "cuisine": "regional", "diet:vegan": "no", "diet:vegetarian": "yes", "indoor_seating": "yes", "level": "0", "name": "Alter Brauhof", "opening_hours": "Tu-Sa 17:00-23:00", "outdoor_seating": "yes", "toilets:wheelchair": "no", "website": "https://www.alterbrauhof.de/", "website:menu": "https://www.alterbrauhof.de/menu", "wheelchair": "limited"}}, {"type": "node", "id": 69119750, "lat": 49.0090325, "lon": 8.4051043, "tags": {"addr:city": "Karlsruhe", "addr:country": "DE", "addr:housenumber": "10", "addr:postcode": "76133", "addr:street": "Kreuzstra\u00dfe", "amenity": "restaurant", "brewery": "Hoepfner;Hacker-Pschorr;F\u00fcrstenberg;Paulaner;Birra Moretti", "check_date": "2025-11-08", "check_date:smoking": "2025-11-08", "contact:website": "http://kater-ka.de", "cuisine": "regional", "diet:vegan": "yes", "diet:vegetarian": "yes", "indoor_seating": "yes", "internet_access": "wlan", "internet_access:fee": "no", "internet_access:ssid": "Kater_Gast", "level": "0", "name": "Schwarzer Kater", "old_name": "Litfass Caf\u00e9", "opening_hours": "Mo-Th 11:30-01:00, Fr,Sa 11:30-03:00, Su 15:30-23:00 unknown \"nur an KSC-Heimspieltagen ge\u00f6ffnet\"", "outdoor_seating": "yes", "phone": "+49 721 6649000", "reservation": "yes", "smoking": "outside", "wheelchair": "no"}}, {"type": "node", "id": 69119792, "lat": 49.0079714, "lon": 8.4054368, "tags": {"addr:city": "Karlsruhe", "addr:country": "DE", "addr:housenumber": "14", "addr:postcode": "76133", "addr:street": "Kreuzstra\u00dfe", "amenity": "restaurant", "cuisine": "japanese", "diet:vegetarian": "yes", "name": "Trio Sip Izakaya", "old_name": "Zum s\u00fcssen Louis", "opening_hours": "Tu-Fr 11:30-15:00,17:00-20:30; Sa,Su 11:30-20:30; Mo off"}}, {"type": "node", "id": 73930023, "lat": 49.0451533, "lon": 8.3813586, "tags": {"addr:city": "Karlsruhe", "addr:country": "DE", "addr:housenumber": "33", "addr:postcode": "76149", "addr:street": "B\u00e4renweg", "amenity": "restaurant", "cuisine": "italian", "name": "La Signora", "opening_hours": "Mo-We,Fr 12:00-14:30,17:00-22:00", "wheelchair": "limited"}}, {"type": "node", "id": 96039171, "lat": 49.008907, "lon": 8.3966278, "tags": {"amenity": "restaurant", "contact:email": "info@salmen-ka.de", "contact:phone": "+49 721 1511438", "contact:website": "http://www.salmen-ka.de/", "indoor_seating": "yes", "name": "Salmen", "opening_hours": "Mo-Th 08:00-01:00; Fr,Sa 08:00-02:00;Sa-Su 08:00-01:00", "operator": "Salmen GmbH", "outdoor_seating": "yes", "smoking": "outside", "wheelchair": "no", "wheelchair:description": "Mehrere Stufen am Eingang"}}, {"type": "node", "id": 96039172, "lat": 49.0087616, "lon": 8.39701}, {"type": "node", "id": 96039177, "lat": 49.0088262, "lon": 8.3960979, "tags": {"air_conditioning": "no", "amenity": "cafe", "check_date": "2025-06-20", "check_date:diet:vegan": "2025-06-20", "check_date:diet:vegetarian": "2025-06-20", "check_date:opening_hours": "2025-06-20", "contact:facebook": "https://www.facebook.com/pages/Ludwigs-cafe-bar-bistro", "diet:vegan": "no", "diet:vegetarian": "yes", "indoor_seating": "yes", "name": "Ludwig's", "note": "Ja, mit Apostroph. Aiuch wenn's einem die Augen verbiegt", "opening_hours": "Mo-Th 09:30-24:00, Fr,Sa 09:30-02:00, Su 10:00-23:00", "outdoor_seating": "no", "payment:credit_cards": "yes", "payment:debit_cards": "yes", "smoking": "no", "website": "http://www.ludwigs-ka.de/", "wheelchair": "yes"}}, {"type": "node", "id": 96039197, "lat": 49.007512, "lon": 8.3930389, "tags": {"amenity": "restaurant", "contact:email": "reservierung@tascadojose.de", "contact:facebook": "https://www.facebook.com/tascadojose/", "contact:phone": "+49 721 96316246", "contact:website": "http://www.tascadojose.de", "cuisine": "portuguese", "diet:vegetarian": "yes", "indoor_seating": "yes", "name": "Tasca do Jos\u00e9", "old_name": "Portale 50 Ristorante", "opening_hours": "Tu-Fr 17:00-23:00, Sa 12:00-15:00; Su,Mo off, Sa 17:00-23:00", "operator": "Jos\u00e9 Vasconcelos", "outdoor_seating": "yes", "wheelchair": "limited"}}, {"type": "node", "id": 96039200, "lat": 49.0073503, "lon": 8.3927521, "tags": {"air_conditioning": "no", "amenity": "restaurant", "brewery": "Hoepfner", "check_date": "2026-01-27", "cuisine": "burger;regional", "diet:vegan": "yes", "diet:vegetarian": "yes", "indoor_seating": "yes", "level": "0", "mapillary": "3048207468735675", "name": "St\u00f6vchen", "opening_hours": "Tu-Th 12:00-22:00; Fr, Sa 12:00-23:00", "outdoor_seating": "yes", "payment:apple_pay": "yes", "payment:cash": "yes", "payment:contactless": "yes", "payment:credit_cards": "yes", "payment:debit_cards": "yes", "payment:girocard": "yes", "payment:mastercard_contactless": "yes", "phone": "+49 721 29241", "smoking": "outside", "toilets": "yes", "toilets:access": "customers", "toilets:wheelchair": "no", "website": "https://www.stoevchen.com/", "website:menu": "https://www.stoevchen.com/speisen", "wheelchair": "limited", "wheelchair:description": "Innenraum nur \u00fcber mehrere Stufen erreichbar. Innenhof, an dem auch bedient wird, ebenerdig erreichbar. Keine barrierefreien Toiletten."}}, {"type": "node", "id": 96039204, "lat": 49.0071764, "lon": 8.3927955, "tags": {"addr:city": "Karlsruhe", "addr:country": "DE", "addr:housenumber": "87", "addr:postcode": "76133", "addr:street": "Waldstra\u00dfe", "amenity": "restaurant", "brewery": "F\u00fcrstenberg", "cuisine": "italian", "name": "Pomodoro", "opening_hours": "Mo-Sa 12:00-14:30,18:00-23:00", "phone": "+49 721 20272", "wheelchair": "no"}}, {"type": "node", "id": 96039206, "lat": 49.0069124, "lon": 8.3919724, "tags": {"addr:city": "Karlsruhe", "addr:housenumber": "66", "addr:postcode": "76133", "addr:street": "Waldstra\u00dfe", "amenity": "cafe", "check_date": "2025-11-07", "name": "La Poesia", "old_name": "Le Renard"}}, {"type": "node", "id": 96039208, "lat": 49.0050924, "lon": 8.3943539, "tags": {"addr:city": "Karlsruhe", "addr:country": "DE", "addr:housenumber": "46a", "addr:postcode": "76133", "addr:street": "Karlstra\u00dfe", "brand": "EDEKA", "brand:wikidata": "Q701755", "check_date:opening_hours": "2025-01-16", "name": "EDEKA Lukasiewicz", "opening_hours": "Mo-Fr 08:30-20:00; Sa 08:00-20:00; Su,PH off", "phone": "+49 721 3549611", "shop": "supermarket", "surveillance": "indoor", "website": "https://www.edeka-lukasiewicz.de/", "wheelchair": "yes"}}, {"type": "node", "id": 96039213, "lat": 49.0040306, "lon": 8.3947194, "tags": {"addr:city": "Karlsruhe", "addr:country": "DE", "addr:housenumber": "53", "addr:postcode": "76133", "addr:street": "Karlstra\u00dfe", "amenity": "restaurant", "cuisine": "indian", "diet:vegetarian": "yes", "indoor_seating": "yes", "name": "Taj Palace", "opening_hours": "Mo-Fr 11:30-14:30,17:30-22:00; Sa,Su,PH 17:30-22:00", "outdoor_seating": "yes", "payment:cards": "yes", "phone": "+49 721 3743 70", "toilets:wheelchair": "no", "website": "https://www.tajpalace-ka.de/", "website:menu": "https://tajpalace-ka.de/vorspeisen", "wheelchair": "yes"}}, {"type": "node", "id": 98044014, "lat": 48.9926625, "lon": 8.3922723, "tags": {"addr:city": "Karlsruhe", "addr:housenumber": "11", "addr:postcode": "76135", "addr:street": "Marie-Alexandra-Stra\u00dfe", "amenity": "cafe", "cuisine": "coffee_shop", "indoor_seating": "yes", "name": "Nello", "opening_hours": "Fr-Su 09:00-17:00", "outdoor_seating": "yes", "payment:credit_cards": "yes", "payment:debit_cards": "yes", "smoking": "outside", "wheelchair": "no"}}, {"type": "node", "id": 98079619, "lat": 48.9987856, "lon": 8.3488915}, {"type": "node", "id": 98079625, "lat": 48.9983203, "lon": 8.3483112}, {"type": "node", "id": 98079633, "lat": 48.9978238, "lon": 8.349239}, {"type": "node", "id": 98079639, "lat": 48.9979649, "lon": 8.3494106}, {"type": "node", "id": 98079642, "lat": 48.9980659, "lon": 8.3492318}, {"type": "node", "id": 98079646, "lat": 48.9983851, "lon": 8.3496391}, {"type": "node", "id": 110461266, "lat": 48.998637, "lon": 8.4040969, "tags": {"addr:city": "Karlsruhe", "addr:housenumber": "29-31", "addr:postcode": "76137", "addr:street": "Ettlinger Stra\u00dfe", "amenity": "restaurant", "check_date": "2024-09-10", "check_date:opening_hours": "2025-11-21", "contact:email": "info@jaipiurgolden.de", "contact:mobile": "+49 162 8997775", "contact:phone": "+49 721 84088688", "contact:website": "https://jaipurgolden.de/", "cuisine": "indian", "diet:vegetarian": "yes", "indoor_seating": "yes", "level": "0", "name": "Jaipur Golden", "old_operator": "Initial e.V.", "opening_hours": "Tu-Sa 11:30-14:30,17:30-22:30; Su,PH 12:00-21:30; Mo off", "operator": "Baldev Singh", "outdoor_seating": "yes", "smoking": "outside", "wheelchair": "no"}}, {"type": "node", "id": 110461274, "lat": 48.9981929, "lon": 8.4042237, "tags": {"air_conditioning": "no", "amenity": "restaurant", "brewery": "Krombacher", "check_date": "2025-05-25", "check_date:smoking": "2024-10-13", "cuisine": "german;pizza;burger;regional", "diet:vegetarian": "yes", "image": "https://ka.stadtwiki.net/Datei:Sockenschuss_Aussenansicht.jpg", "indoor_seating": "yes", "level": "0", "lunch": "yes", "name": "Sockenschuss", "opening_hours": "Mo-Th 11:00-02:00, Fr-Sa 11:00-03:00, Su 16:00-02:00", "opening_hours:signed": "no", "outdoor_seating": "yes", "payment:cards": "no", "payment:cash": "yes", "payment:credit_cards": "no", "payment:debit_cards": "no", "phone": "+49 721 3842604", "smoking": "outside", "surveillance": "indoor", "website": "https://ka.stadtwiki.net/Sockenschuss", "wheelchair": "limited"}}, {"type": "node", "id": 151348506, "lat": 49.0015817, "lon": 8.3245388, "tags": {"addr:city": "Karlsruhe", "addr:country": "DE", "addr:housenumber": "17", "addr:postcode": "76189", "alt_name": "Sch\u00fctzenhaus Daxlanden", "amenity": "restaurant", "contact:phone": "+49 721 96490660", "contact:website": "https://osteria-carlin-contrario.de/", "cuisine": "italian", "name": "Osteria Carlin Contrario", "opening_hours": "We-Sa 17:00-21:30; Su 12:00-21:30; Mo,Tu off", "operator": "Roberto Frigo", "outdoor_seating": "yes"}}, {"type": "node", "id": 151348509, "lat": 49.0029477, "lon": 8.3242914, "tags": {"amenity": "restaurant", "name": "Z\u00fcchterheim Kleintierzuchtverein Daxlanden"}}, {"type": "node", "id": 154915803, "lat": 49.0008332, "lon": 8.4025114}, {"type": "node", "id": 154915845, "lat": 49.0007509, "lon": 8.4026569}, {"type": "node", "id": 154915903, "lat": 49.0008518, "lon": 8.4023692}, {"type": "node", "id": 154915938, "lat": 49.0003133, "lon": 8.4024211}, {"type": "node", "id": 154916009, "lat": 49.0007883, "lon": 8.4019876}, {"type": "node", "id": 154916069, "lat": 49.0003931, "lon": 8.4021978}, {"type": "node", "id": 154917255, "lat": 49.0008211, "lon": 8.4026554}, {"type": "node", "id": 154917265, "lat": 49.0008263, "lon": 8.4025837}, {"type": "node", "id": 154917296, "lat": 49.0006986, "lon": 8.4025557}, {"type": "node", "id": 154917304, "lat": 49.0008417, "lon": 8.4024395}, {"type": "node", "id": 154917380, "lat": 49.0004429, "lon": 8.401867}, {"type": "node", "id": 154917395, "lat": 49.0008581, "lon": 8.4023714}, {"type": "node", "id": 154917508, "lat": 49.0003492, "lon": 8.4021824}, {"type": "node", "id": 178509383, "lat": 48.9965667, "lon": 8.4638957, "tags": {"addr:city": "Karlsruhe", "addr:country": "DE", "addr:housenumber": "33c", "addr:postcode": "76227", "addr:street": "Amalienbadstra\u00dfe", "amenity": "restaurant", "check_date": "2025-10-03", "check_date:opening_hours": "2022-08-11", "contact:email": "mail@borsalino-ka.de", "contact:phone": "+49 721 4766595", "contact:website": "https://www.borsalino-ka.de/", "cuisine": "italian", "diet:vegetarian": "yes", "indoor_seating": "yes", "name": "Borsalino", "opening_hours": "Tu-Fr 11:00-14:30,17:30-22:30; Sa,Su 12:00-22:30; Mo off", "opening_hours:covid19": "off", "outdoor_seating": "yes", "reservation": "yes", "toilets:wheelchair": "yes", "wheelchair": "yes"}}, {"type": "node", "id": 246253892, "lat": 49.0074993, "lon": 8.4015294, "tags": {"access": "yes", "entrance": "main", "wheelchair": "yes"}}, {"type": "node", "id": 246253893, "lat": 49.006954, "lon": 8.4033182}, {"type": "node", "id": 246253895, "lat": 49.0066902, "lon": 8.4034617}, {"type": "node", "id": 246253897, "lat": 49.0066734, "lon": 8.4035126}, {"type": "node", "id": 246253901, "lat": 49.0062188, "lon": 8.403465}, {"type": "node", "id": 246253903, "lat": 49.0062242, "lon": 8.4033265}, {"type": "node", "id": 246253907, "lat": 49.0059634, "lon": 8.4033351}, {"type": "node", "id": 246253911, "lat": 49.0057233, "lon": 8.4033306}, {"type": "node", "id": 246253912, "lat": 49.0057154, "lon": 8.4017506}, {"type": "node", "id": 246253914, "lat": 49.0061374, "lon": 8.4017489}, {"type": "node", "id": 246253916, "lat": 49.0061342, "lon": 8.4016011}, {"type": "node", "id": 246253918, "lat": 49.0063757, "lon": 8.4013131}, {"type": "node", "id": 246253920, "lat": 49.0069687, "lon": 8.4017162}, {"type": "node", "id": 246253922, "lat": 49.0070664, "lon": 8.4016427}, {"type": "node", "id": 246253923, "lat": 49.0071945, "lon": 8.401731}, {"type": "node", "id": 246253925, "lat": 49.0072587, "lon": 8.4015234}, {"type": "node", "id": 246253927, "lat": 49.0073184, "lon": 8.4015662}, {"type": "node", "id": 246253929, "lat": 49.0073595, "lon": 8.4014327}, {"type": "node", "id": 246560881, "lat": 48.9962009, "lon": 8.3915192, "tags": {"addr:city": "Karlsruhe", "addr:country": "DE", "addr:housenumber": "18", "addr:postcode": "76137", "addr:street": "Welfenstra\u00dfe", "amenity": "restaurant", "check_date:opening_hours": "2025-04-05", "contact:email": "info@sokrates-karlsruhe.de", "contact:phone": "+49 721 813181", "contact:website": "https://www.sokrates-karlsruhe.de/", "cuisine": "greek", "indoor_seating": "yes", "level": "0", "name": "Sokrates", "opening_hours": "Mo off; Tu-Th 17:30-23:30; Fr-Su 17:30-23:30,11:30-14:30", "operator": "E. Maios - E. Liakonas", "outdoor_seating": "yes", "toilets:wheelchair": "no", "wheelchair": "no"}}, {"type": "node", "id": 248951132, "lat": 49.0199545, "lon": 8.3852197, "tags": {"addr:city": "Karlsruhe", "addr:country": "DE", "addr:housenumber": "100", "addr:postcode": "76133", "addr:street": "Erzbergerstra\u00dfe", "brand": "Nahkauf", "brand:wikidata": "Q57515238", "check_date:opening_hours": "2025-02-17", "currency:EUR": "yes", "email": "info@nahkauf-sarac.de", "internet_access": "wlan", "name": "Nahkauf", "old_name": "Nah und gut", "opening_hours": "Mo-Sa 08:00-20:00; PH off", "operator": "Ali Ihsan Sarac", "payment:cash": "yes", "payment:coins": "yes", "payment:contactless": "yes", "payment:credit_cards": "yes", "payment:ep_geldkarte": "yes", "phone": "+49 721 71766", "shop": "supermarket", "website": "http://www.nahkauf-sarac.de", "wheelchair": "yes"}}, {"type": "node", "id": 249173369, "lat": 49.0254566, "lon": 8.3605953, "tags": {"addr:city": "Karlsruhe", "addr:country": "DE", "addr:housenumber": "25a", "addr:postcode": "76185", "addr:street": "Bonner Stra\u00dfe", "amenity": "restaurant", "contact:email": "kontakt@hellas-karlsruhe.de", "contact:phone": "+49 721 758560", "contact:website": "https://hellas-karlsruhe.de/", "cuisine": "greek", "name": "Hellas", "opening_hours": "Mo-We 11:30-14:30,17:30-22:00; Fr 11:30-14:30,17:30-24:00; Sa 17:30-24:00; Su 11:30-15:30,17:30-22:00", "takeaway": "yes", "wheelchair": "limited"}}, {"type": "node", "id": 250124763, "lat": 49.0448722, "lon": 8.3816412, "tags": {"addr:city": "Karlsruhe", "addr:country": "DE", "addr:housenumber": "35", "addr:postcode": "76149", "addr:street": "B\u00e4renweg", "addr:suburb": "Neureut", "amenity": "cafe", "changing_table": "no", "cuisine": "ice_cream", "diet:vegan": "yes", "diet:vegetarian": "yes", "name": "Eis Cafe La Crema", "opening_hours": "Feb-Mar,Oct-Nov Mo-Su,PH 11:00-20:00; Apr-Sep Mo-Su,PH 11:00-22:00", "operator": "Elmi Metaj", "outdoor_seating": "yes", "takeaway": "yes", "wheelchair": "yes"}}, {"type": "node", "id": 250128798, "lat": 49.04742, "lon": 8.3798537, "tags": {"amenity": "cafe", "name": "Eiscafe Licata", "toilets:wheelchair": "no", "wheelchair": "no"}}, {"type": "node", "id": 251356504, "lat": 48.9984358, "lon": 8.4814342, "tags": {"disused:railway": "station", "end_date": "2024-12-29", "indoor": "yes", "level": "0", "name": "Talstation", "operator": "Verkehrsbetriebe Karlsruhe GmbH", "station": "funicular", "tourism": "attraction", "wheelchair": "no"}}, {"type": "node", "id": 253396057, "lat": 49.0089053, "lon": 8.3981933, "tags": {"amenity": "restaurant", "indoor_seating": "yes", "name": "Alte Bank", "opening_hours": "Su-Th 10:00-24:00, Fr,Sa 10:00-01:00", "outdoor_seating": "yes", "phone": "+49 721 1832818", "smoking": "no", "toilets:wheelchair": "no", "website": "https://www.altebank.de/", "website:menu": "https://altebank.de/wp-content/uploads/2023/11/Winterkarte2023_24.pdf", "wheelchair": "no", "wheelchair:description": "Seiteneingang \u00fcber Fahrstuhl"}}, {"type": "node", "id": 253396063, "lat": 49.009086, "lon": 8.3991004, "tags": {"addr:city": "Karlsruhe", "addr:country": "DE", "addr:housenumber": "23", "addr:postcode": "76133", "addr:street": "Herrenstra\u00dfe", "amenity": "restaurant", "check_date": "2024-10-03", "check_date:opening_hours": "2024-10-03", "cuisine": "vietnamese", "internet_access": "wlan", "internet_access:fee": "no", "level": "0", "name": "MaiGarden", "opening_hours": "Su-Th 11:30-22:30; Fr,Sa 11:30-23:00", "phone": "+49 72195965379", "toilets:wheelchair": "no", "website": "https://www.maigardenkarlsruhe.de/", "wheelchair": "limited", "wheelchair:description:de": "alles ebenerdig"}}, {"type": "node", "id": 254788041, "lat": 49.0039353, "lon": 8.3686305}, {"type": "node", "id": 254788042, "lat": 49.0039329, "lon": 8.3688641}, {"type": "node", "id": 254788043, "lat": 49.0043535, "lon": 8.3686261}, {"type": "node", "id": 254788044, "lat": 49.0043556, "lon": 8.3683207}, {"type": "node", "id": 254788046, "lat": 49.003984, "lon": 8.3681422}, {"type": "node", "id": 254788048, "lat": 49.0038875, "lon": 8.3682191}, {"type": "node", "id": 254788050, "lat": 49.003885, "lon": 8.3684568}, {"type": "node", "id": 254788056, "lat": 49.0038833, "lon": 8.3686293}, {"type": "node", "id": 256026567, "lat": 49.0079208, "lon": 8.3950796, "tags": {"amenity": "cafe", "diet:vegetarian": "yes", "indoor_seating": "yes", "name": "Badische Backstub'", "opening_hours": "Mo-Fr 06:00-17:30; Sa 07:00-13:00; PH,Su off", "outdoor_seating": "yes", "shop": "bakery", "takeaway": "yes", "wheelchair": "yes"}}, {"type": "node", "id": 256026568, "lat": 49.0098207, "lon": 8.3935782}, {"type": "node", "id": 256026569, "lat": 49.0089404, "lon": 8.3934848}, {"type": "node", "id": 256026570, "lat": 49.008882, "lon": 8.3947621}, {"type": "node", "id": 256026571, "lat": 49.0097626, "lon": 8.3948555}, {"type": "node", "id": 258538737, "lat": 49.0257113, "lon": 8.4111468, "tags": {"addr:city": "Karlsruhe", "addr:housenumber": "8", "addr:postcode": "76131", "addr:street": "Grabener Allee", "amenity": "restaurant", "check_date:opening_hours": "2022-10-07", "diet:vegetarian": "no", "name": "SpVgg Olympia Hertha", "opening_hours:signed": "no", "phone": "+49 721 751660", "wheelchair": "no"}}, {"type": "node", "id": 259979117, "lat": 49.0294267, "lon": 8.3752984}, {"type": "node", "id": 259979118, "lat": 49.0291486, "lon": 8.3749518}, {"type": "node", "id": 259979119, "lat": 49.0291964, "lon": 8.3757574}, {"type": "node", "id": 259979120, "lat": 49.0291094, "lon": 8.3758236}, {"type": "node", "id": 261012768, "lat": 48.9999169, "lon": 8.4641217, "tags": {"addr:city": "Karlsruhe", "addr:country": "DE", "addr:housenumber": "1", "addr:postcode": "76227", "addr:street": "Karlsruher Allee", "amenity": "restaurant", "beer_garden": "yes", "changing_table": "yes", "cuisine": "regional", "diet:vegetarian": "yes", "indoor_seating": "yes", "level": "0", "name": "Cafe Galerie", "opening_hours": "Su-Th 08:30-24:00, Fr,Sa 08:30-01:00", "outdoor_seating": "yes", "phone": "+49 721 4901939", "smoking": "outside", "toilets": "yes", "toilets:access": "permissive", "website": "https://cafegalerie-karlsruhe.de/", "wheelchair": "no"}}, {"type": "node", "id": 261020650, "lat": 49.0316879, "lon": 8.3724284}, {"type": "node", "id": 261020651, "lat": 49.0317007, "lon": 8.3722054}, {"type": "node", "id": 261020652, "lat": 49.0315904, "lon": 8.3721931}, {"type": "node", "id": 261020653, "lat": 49.0315765, "lon": 8.3724178}, {"type": "node", "id": 261770102, "lat": 49.0121383, "lon": 8.4458346, "tags": {"amenity": "restaurant", "brewery": "Hoepfner", "name": "Weinweg-Klause", "wheelchair": "no"}}, {"type": "node", "id": 262098524, "lat": 49.0011797, "lon": 8.4157154, "tags": {"addr:city": "Karlsruhe", "addr:country": "DE", "addr:housenumber": "13", "addr:postcode": "76137", "addr:street": "Anna-Lauter-Stra\u00dfe", "amenity": "cafe", "cuisine": "cake;sandwich", "diet:vegan": "yes", "diet:vegetarian": "yes", "indoor_seating": "yes", "level": "0", "name": "Reinmuth", "opening_hours": "Mo-Fr 06:00-18:00; Sa 06:00-13:00; Su,PH 08:00-11:00", "outdoor_seating": "yes", "phone": "+497218314690", "shop": "bakery", "smoking": "outside", "website": "http://www.baeckerei-reinmuth.de", "wheelchair": "yes"}}, {"type": "node", "id": 263519445, "lat": 49.0104252, "lon": 8.3812219, "tags": {"addr:city": "Karlsruhe", "addr:housenumber": "23", "addr:postcode": "76133", "addr:street": "Kaiserallee", "air_conditioning": "no", "amenity": "restaurant", "check_date": "2025-11-08", "contact:facebook": "https://facebook.com/kaisergartenkarlsruhe", "cuisine": "regional", "diet:halal": "no", "diet:kosher": "no", "diet:vegan": "no", "diet:vegetarian": "yes", "email": "info@kaiser-garten.de", "indoor_seating": "yes", "internet_access": "wlan", "internet_access:fee": "no", "level": "0", "name": "Kaisergarten", "opening_hours": "Mo-Th 12:00-22:00; Fr,Sa 12:00-22:30; PH,Su 12:00-21:30", "opening_hours:kitchen": "Mo-Sa 12:00-21:00; PH,Su 12:00-20:30", "outdoor_seating": "yes", "payment:credit_cards": "yes", "payment:debit_cards": "yes", "payment:girocard": "yes", "phone": "+49 721 8302118", "reservation": "yes", "self_service": "no", "smoking": "outside", "toilets": "yes", "website": "https://kaiser-garten.de", "wheelchair": "no", "wheelchair:description": "mit fremder Hilfe kommt man \u00fcber die Stufe am Eingang, kein barrierefreies WC"}}, {"type": "node", "id": 263519488, "lat": 49.0302494, "lon": 8.340208, "tags": {"addr:city": "Karlsruhe", "addr:country": "DE", "addr:housenumber": "88", "addr:postcode": "76187", "addr:street": "Saarlandstra\u00dfe", "amenity": "restaurant", "contact:phone": "+49 721 566646", "cuisine": "mexican", "name": "El Taco", "opening_hours": "Fr-Su 16:00-21:00; Mo-Th off, Sa off", "outdoor_seating": "no", "wheelchair": "yes"}}, {"type": "node", "id": 263884192, "lat": 49.0378382, "lon": 8.3059712, "tags": {"addr:city": "Karlsruhe", "addr:country": "DE", "addr:housenumber": "15", "addr:postcode": "76187", "addr:street": "Maxau am Rhein", "addr:subdistrict": "Maxau", "addr:suburb": "Knielingen", "amenity": "restaurant", "delivery": "no", "description": "Eventlocation, kein normaler Restaurantbetrieb", "indoor_seating": "yes", "name": "Rheinterrassen Karlsruhe", "opening_hours": "\"by appointment\"", "operator": "S\u2019Badisch Brauhaus Braugesellschaft mbH", "outdoor_seating": "yes", "phone": "+49 721 1448000", "reservation": "yes", "takeaway": "no", "toilets:wheelchair": "yes", "website": "https://rheinterrassen-karlsruhe.de/", "wheelchair": "yes"}}, {"type": "node", "id": 264972019, "lat": 49.0063035, "lon": 8.3797478}, {"type": "node", "id": 264972028, "lat": 49.006216, "lon": 8.3799332}, {"type": "node", "id": 264972029, "lat": 49.0062817, "lon": 8.379731}, {"type": "node", "id": 264972031, "lat": 49.0063233, "lon": 8.3797632}, {"type": "node", "id": 264972033, "lat": 49.0063496, "lon": 8.3796833}, {"type": "node", "id": 264972034, "lat": 49.0057702, "lon": 8.3792412}, {"type": "node", "id": 264972035, "lat": 49.0057685, "lon": 8.379684}, {"type": "node", "id": 264975242, "lat": 49.005795, "lon": 8.379559}, {"type": "node", "id": 264975243, "lat": 49.0057991, "lon": 8.3794544}, {"type": "node", "id": 271798323, "lat": 49.005344, "lon": 8.4796161}, {"type": "node", "id": 271798325, "lat": 49.004786, "lon": 8.479653}, {"type": "node", "id": 271798326, "lat": 49.0048464, "lon": 8.4792369}, {"type": "node", "id": 271798328, "lat": 49.0050131, "lon": 8.4792259}, {"type": "node", "id": 271798330, "lat": 49.0050117, "lon": 8.4791751}, {"type": "node", "id": 271798331, "lat": 49.0053308, "lon": 8.479154}, {"type": "node", "id": 282568499, "lat": 49.0107835, "lon": 8.40295, "tags": {"addr:city": "Karlsruhe", "addr:housenumber": "19", "addr:postcode": "76131", "addr:street": "Schlossplatz", "amenity": "restaurant", "diet:vegetarian": "yes", "level": "0", "name": "Mauritius", "opening_hours": "Mo-Th 11:00-24:00, Fr 11:00-01:00, Sa 12:00-01:00, Su 12:00-24:00", "toilets:wheelchair": "yes", "wheelchair": "yes"}}, {"type": "node", "id": 285121430, "lat": 49.003035, "lon": 8.355799, "tags": {"addr:city": "Karlsruhe", "addr:country": "DE", "addr:housenumber": "17", "addr:postcode": "76185", "addr:street": "Zeppelinstra\u00dfe", "amenity": "restaurant", "beer_garden": "yes", "check_date": "2022-08-23", "cuisine": "regional", "delivery": "no", "email": "info@braustuebl-ka.de", "name": "Braust\u00fcbl Hatz-Moninger", "note:covid19": "opening_hours:covid19 valid from 2020-05-05", "opening_hours": "Mo-Sa 12:00-23:00; Su,PH 12:00-22:00", "opening_hours:covid19": "12:00-20:00", "outdoor_seating": "yes", "payment:girocard": "yes", "payment:mastercard": "yes", "payment:visa": "yes", "phone": "+49 721 5307689", "takeaway:covid19": "yes", "toilets:wheelchair": "yes", "website": "https://braustuebl-ka.de", "wheelchair": "yes"}}, {"type": "node", "id": 286069035, "lat": 49.0097984, "lon": 8.3519714, "tags": {"addr:city": "Karlsruhe", "addr:country": "DE", "addr:housenumber": "7", "addr:postcode": "76185", "addr:street": "Carl-Metz-Stra\u00dfe", "brand": "Kaufland", "brand:wikidata": "Q685967", "brand:wikipedia": "en:Kaufland", "check_date": "2025-06-14", "check_date:opening_hours": "2025-02-18", "internet_access": "wlan", "internet_access:fee": "no", "name": "Kaufland", "opening_hours": "Mo-Sa 07:00-22:00; Su,PH off", "phone": "+49 721 15180", "shop": "supermarket", "toilets:wheelchair": "yes", "website": "https://filiale.kaufland.de/service/filiale/karlsruhe-gruenwinkel-8530.html", "wheelchair": "yes"}}, {"type": "node", "id": 286343999, "lat": 49.0022661, "lon": 8.3567958, "tags": {"addr:city": "Karlsruhe", "addr:country": "DE", "addr:housenumber": "15", "addr:postcode": "76185", "addr:street": "Zeppelinstra\u00dfe", "brand": "Lidl", "brand:wikidata": "Q151954", "check_date:opening_hours": "2025-09-01", "name": "Lidl", "opening_hours": "Mo-Sa 07:00-21:00; PH off", "shop": "supermarket", "wheelchair": "yes"}}, {"type": "node", "id": 287724648, "lat": 48.9931939, "lon": 8.4612859, "tags": {"amenity": "restaurant", "cuisine": "italian", "diet:vegetarian": "yes", "indoor_seating": "yes", "name": "Romulus et Remus", "opening_hours": "We-Fr,Su,Mo 11:30-14:30,17:30-23:30; Sa 17:30-23:30; Tu off", "outdoor_seating": "yes", "phone": "+49 721 44360", "website": "https://www.romulus-et-remus.eu/", "wheelchair": "limited"}}, {"type": "node", "id": 292082933, "lat": 49.009487, "lon": 8.3942563, "tags": {"addr:city": "Karlsruhe", "addr:housenumber": "217", "addr:postcode": "76133", "addr:street": "Kaiserstra\u00dfe", "alt_name": "Lidl Postgalerie", "brand": "Lidl", "brand:wikidata": "Q151954", "brand:wikipedia": "en:Lidl", "check_date": "2025-07-22", "check_date:diet:halal": "2025-07-22", "check_date:diet:kosher": "2025-07-22", "check_date:opening_hours": "2024-11-25", "diet:halal": "no", "diet:kosher": "no", "level": "-1", "name": "Lidl", "opening_hours": "Mo-Sa 08:00-21:00; Su,PH off", "operator": "Lidl Vertriebs-GmbH & Co. KG (Bietigheim)", "payment:coins": "yes", "payment:contactless": "yes", "payment:girocard": "yes", "payment:mastercard": "yes", "payment:notes": "yes", "payment:visa": "yes", "ref:vatin": "DE813389176", "shop": "supermarket", "supermarket": "discount", "toilets:wheelchair": "no", "website": "https://www.lidl.de/filialen/karlsruhe-innenstadt/kaiserstr-217.html", "wheelchair": "yes"}}, {"type": "node", "id": 292401695, "lat": 49.0110353, "lon": 8.3944601, "tags": {"addr:city": "Karlsruhe", "addr:country": "DE", "addr:housenumber": "28a", "addr:postcode": "76133", "addr:street": "Akademiestra\u00dfe", "amenity": "cafe", "contact:phone": "+49 721 1617890", "diet:vegetarian": "yes", "level": "0", "name": "Palais Max", "opening_hours": "Mo-Su 11:30-17:00", "outdoor_seating": "yes", "toilets": "yes", "wheelchair": "yes"}}, {"type": "node", "id": 295478592, "lat": 49.005613, "lon": 8.3849344, "tags": {"addr:city": "Karlsruhe", "addr:country": "DE", "addr:housenumber": "206", "addr:postcode": "76135", "addr:street": "Kriegsstra\u00dfe", "amenity": "restaurant", "check_date:opening_hours": "2024-08-08", "contact:phone": "+49 721 83168008", "contact:website": "http://bepxua.de/", "cuisine": "vietnamese;thai", "diet:vegetarian": "yes", "indoor_seating": "yes", "name": "Bep Xua", "opening_hours": "Mo off; Tu-Su 18:00-22:00", "outdoor_seating": "yes", "payment:cash": "yes", "wheelchair": "no"}}, {"type": "node", "id": 296294951, "lat": 49.0040145, "lon": 8.4076558, "tags": {"addr:city": "Karlsruhe", "addr:country": "DE", "addr:housenumber": "36", "addr:postcode": "76137", "addr:street": "Baumeisterstra\u00dfe", "air_conditioning": "no", "amenity": "cafe", "check_date": "2025-07-16", "cuisine": "coffee_shop", "name": "K\u00e4ffli Haus", "opening_hours": "Mo-Fr 7:00-18:00; Sa 10:00-17:00; Su,PH off", "wheelchair": "no"}}, {"type": "node", "id": 296294952, "lat": 49.0017606, "lon": 8.4033904, "tags": {"addr:city": "Karlsruhe", "addr:country": "DE", "addr:housenumber": "11a", "addr:street": "Ettlinger Stra\u00dfe", "alt_name": "Cafe Kongreas", "amenity": "cafe", "check_date": "2024-03-06", "contact:phone": "+49 721 3548383", "contact:website": "https://cafekongress.eatbu.com", "diet:halal": "no", "diet:kosher": "no", "diet:vegan": "yes", "diet:vegetarian": "yes", "indoor_seating": "yes", "level": "0", "name": "Caf\u00e9 Kongress", "opening_hours": "Mo-Tu off; We-Su 09:00-17:00", "operator": "Andreas Mizsur", "outdoor_seating": "yes", "payment:coins": "yes", "payment:credit_cards": "no", "payment:cryptocurrencies": "no", "payment:debit_cards": "yes", "payment:girocard": "yes", "payment:maestro": "yes", "payment:notes": "yes", "smoking": "outside", "toilets": "yes", "toilets:wheelchair": "yes", "wheelchair": "limited"}}, {"type": "node", "id": 302629497, "lat": 49.0040287, "lon": 8.4077785, "tags": {"addr:city": "Karlsruhe", "addr:country": "DE", "addr:housenumber": "2", "addr:postcode": "76137", "addr:street": "Marienstra\u00dfe", "air_conditioning": "no", "amenity": "restaurant", "check_date:opening_hours": "2024-09-13", "cuisine": "kebab", "delivery": "no", "diet:vegan": "yes", "diet:vegetarian": "yes", "indoor_seating": "yes", "kids_area": "no", "name": "Palmera", "opening_hours": "Mo-Fr 11:30-22:00; Sa,PH 13:00-22:00; Su off", "outdoor_seating": "yes", "smoking": "no", "takeaway": "yes", "wheelchair": "no"}}, {"type": "node", "id": 305533091, "lat": 49.0096653, "lon": 8.4054354, "tags": {"addr:city": "Karlsruhe", "addr:country": "DE", "addr:housenumber": "64", "addr:postcode": "76133", "addr:street": "Kaiserstra\u00dfe", "amenity": "restaurant", "check_date": "2026-02-28", "check_date:opening_hours": "2026-02-28", "cuisine": "asian;sushi", "diet:halal": "no", "diet:kosher": "no", "diet:vegan": "no", "diet:vegetarian": "yes", "drive_through": "no", "indoor_seating": "yes", "name": "TA Izakaya", "opening_hours": "Mo-Su 11:00-23:00", "opening_hours:signed": "no", "operator": "Hort Fast-Food GmbH &Co. KG", "outdoor_seating": "yes", "payment:credit_cards": "yes", "payment:debit_cards": "yes", "phone": "+49 721 15149688", "seating": "yes", "smoking": "no", "surveillance": "indoor", "website": "https://www.ta-izakaya.de/", "wheelchair": "yes"}}, {"type": "node", "id": 309303366, "lat": 49.0054965, "lon": 8.4486405}, {"type": "node", "id": 309303368, "lat": 49.0049197, "lon": 8.4484108}, {"type": "node", "id": 309303370, "lat": 49.004974, "lon": 8.4480944}, {"type": "node", "id": 309303372, "lat": 49.0041212, "lon": 8.4477545}, {"type": "node", "id": 309303374, "lat": 49.0039868, "lon": 8.448569}, {"type": "node", "id": 309303375, "lat": 49.004199, "lon": 8.4486504}, {"type": "node", "id": 309303377, "lat": 49.0041747, "lon": 8.4491499}, {"type": "node", "id": 309303379, "lat": 49.0042764, "lon": 8.4491913}, {"type": "node", "id": 309303380, "lat": 49.0042228, "lon": 8.4495069}, {"type": "node", "id": 309303382, "lat": 49.0043299, "lon": 8.4495505}, {"type": "node", "id": 309303384, "lat": 49.0042746, "lon": 8.4498639}, {"type": "node", "id": 309303385, "lat": 49.0043896, "lon": 8.4499092}, {"type": "node", "id": 309303387, "lat": 49.0043314, "lon": 8.4502491}, {"type": "node", "id": 309303389, "lat": 49.0043831, "lon": 8.4502697}, {"type": "node", "id": 309303390, "lat": 49.0043019, "lon": 8.4507434}, {"type": "node", "id": 309303402, "lat": 49.0052067, "lon": 8.4504057}, {"type": "node", "id": 309303403, "lat": 49.0051496, "lon": 8.4503829}, {"type": "node", "id": 309303405, "lat": 49.0051778, "lon": 8.450218}, {"type": "node", "id": 309303408, "lat": 49.0054455, "lon": 8.4496325}, {"type": "node", "id": 309303410, "lat": 49.0053667, "lon": 8.4496011}, {"type": "node", "id": 311191490, "lat": 48.9972943, "lon": 8.3929385, "tags": {"addr:city": "Karlsruhe", "addr:country": "DE", "addr:housenumber": "12", "addr:postcode": "76137", "addr:street": "Leibnizstra\u00dfe", "amenity": "cafe", "diet:vegan": "yes", "diet:vegetarian": "yes", "indoor_seating": "yes", "name": "Frieda", "opening_hours": "Mo off; Tu-Su 10:00-18:00", "outdoor_seating": "yes", "payment:credit_cards": "yes", "payment:debit_cards": "yes", "smoking": "outside", "takeaway": "no", "toilets:wheelchair": "no", "wheelchair": "yes"}}, {"type": "node", "id": 311372769, "lat": 49.0017195, "lon": 8.3947107, "tags": {"addr:postcode": "76137", "amenity": "cafe", "cuisine": "eritrean", "diet:vegan": "yes", "diet:vegetarian": "yes", "level": "0", "name": "Wegahta", "opening_hours": "Mo-Fr 09:00-21:00; Sa 09:00-21:00", "phone": "+49 721 47051143", "shop": "spices", "wheelchair": "no"}}, {"type": "node", "id": 311372771, "lat": 49.0014266, "lon": 8.3945976, "tags": {"addr:city": "Karlsruhe", "addr:country": "DE", "addr:housenumber": "67", "addr:postcode": "76137", "addr:street": "Karlstra\u00dfe", "branch": "Karlsruhe City", "brand": "PENNY", "brand:wikidata": "Q284688", "check_date:opening_hours": "2024-12-09", "name": "PENNY", "note": "am Geb\u00e4ude steht \"Penny Karlsruhe City\"", "opening_hours": "Mo-Sa 07:30-22:00; Su,PH off", "shop": "supermarket", "supermarket": "discount", "surveillance": "indoor", "wheelchair": "limited", "wheelchair:description": "Keine Stufen, automatische T\u00fcr, aber Drehkreuz am Eingang"}}, {"type": "node", "id": 312915887, "lat": 49.0066092, "lon": 8.3814878, "tags": {"amenity": "restaurant", "check_date:opening_hours": "2024-12-26", "contact:email": "reservierung@stilbruch-ka.de", "contact:phone": "+49 721 47038779", "cuisine": "regional", "name": "Stilbruch", "opening_hours": "Th-Mo 18:30+; Tu,We off", "website": "https://stilbruch-ka.de/"}}, {"type": "node", "id": 312918347, "lat": 49.0102345, "lon": 8.3854713, "tags": {"amenity": "restaurant", "contact:email": "info@asmara-ka.de", "contact:phone": "+49 721 2049828", "contact:website": "http://www.asmara-ka.de/", "cuisine": "african", "description": "Speisen \u00fcberwiegend aus Eritrea. Mittags Buffet.", "diet:vegan": "yes", "diet:vegetarian": "yes", "indoor_seating": "yes", "name": "Asmara", "note": "vorher: Trompeter von S\u00e4ckingen", "opening_hours": "Mo-Fr 12:00-14:00,17:30-18:00+; Sa 17:30-18:00+", "outdoor_seating": "yes", "wheelchair": "no"}}, {"type": "node", "id": 312918350, "lat": 49.0102244, "lon": 8.3866798, "tags": {"addr:city": "Karlsruhe", "addr:housenumber": "3", "addr:postcode": "76133", "addr:street": "Kaiserallee", "amenity": "restaurant", "changing_table": "no", "cuisine": "italian", "diet:vegetarian": "yes", "email": "mammamia@fratello-caputo.de", "indoor_seating": "yes", "level": "0", "name": "Fratello Caputo Karlsruhe", "old_name": "Unversch\u00e4mt;Monkeyz Club;Purino Karlsruhe-West", "opening_hours": "Tu-Fr 11:30-14:30,17:30-22:00; Sa,Su,PH 11:30-22:00", "outdoor_seating": "sidewalk", "payment:cash": "yes", "payment:credit_cards": "yes", "payment:cryptocurrencies": "no", "payment:debit_cards": "yes", "payment:electronic_purses": "yes", "phone": "+49 721 96310217", "ref:vatin": "DE319851002", "smoking": "no", "surveillance": "indoor", "toilets": "yes", "toilets:disposal": "flush", "toilets:female": "yes", "toilets:male": "yes", "toilets:unisex": "no", "toilets:wheelchair": "yes", "website": "https://fratello-caputo.de/", "wheelchair": "limited"}}, {"type": "node", "id": 317368774, "lat": 49.0371955, "lon": 8.3916454}, {"type": "node", "id": 317368775, "lat": 49.0370949, "lon": 8.3912904}, {"type": "node", "id": 321426895, "lat": 49.0013958, "lon": 8.4073717, "tags": {"addr:city": "Karlsruhe", "addr:country": "DE", "addr:housenumber": "46-48", "addr:postcode": "76137", "addr:street": "Werderstra\u00dfe", "brand": "Nahkauf", "brand:wikidata": "Q57515238", "check_date:opening_hours": "2025-10-06", "diet:halal": "no", "diet:kosher": "no", "name": "Nahkauf", "opening_hours": "Mo-Sa 07:00-22:00; PH off", "operator": "Ute Petriccione", "shop": "supermarket", "wheelchair": "yes"}}, {"type": "node", "id": 345154523, "lat": 49.0273752, "lon": 8.3574495, "tags": {"brand": "Netto Marken-Discount", "brand:wikidata": "Q879858", "name": "Netto Marken-Discount", "opening_hours": "Mo-Sa 07:00-21:00", "shop": "supermarket", "website": "https://www.netto-online.de/filialen/Karlsruhe/Neureuter-Str-45/3993/", "wheelchair": "yes"}}, {"type": "node", "id": 361242397, "lat": 49.0100608, "lon": 8.4111619, "tags": {"addr:city": "Karlsruhe", "addr:country": "DE", "addr:housenumber": "14", "addr:postcode": "76131", "addr:street": "Englerstra\u00dfe", "amenity": "restaurant", "contact:email": "uyghur_urumchi@outlook.de", "contact:instagram": "https://www.instagram.com/urumchi.restaurant/", "contact:phone": "+49 176 61406968", "cuisine": "uyghur", "delivery": "Tu-Su 12:00-20:00", "delivery:partner": "Lieferando", "name": "\u00dcr\u00fcmchi", "opening_hours": "Sa, Su 11:30-21:00; We-Fr 11:30-15:00, 17:00-21:00 off", "takeaway": "yes", "website": "https://urumchi-ka.eatbu.com"}}, {"type": "node", "id": 366105581, "lat": 49.0113333, "lon": 8.4382234, "tags": {"entrance": "yes", "level": "0", "steps": "yes"}}, {"type": "node", "id": 367812563, "lat": 49.027678, "lon": 8.4597139, "tags": {"entrance": "yes", "level": "0"}}, {"type": "node", "id": 368178248, "lat": 49.0110978, "lon": 8.4409182, "tags": {"amenity": "restaurant", "brewery": "F\u00fcrstenberg", "check_date:opening_hours": "2026-03-03", "contact:mobile": "+49 176 82152021", "contact:phone": "+49 721 78203320", "cuisine": "mediterranean;german", "indoor_seating": "yes", "name": "Rintheimer Stuben", "opening_hours": "Tu-Su 11:00-14:30,17:00-22:00; Mo off", "outdoor_seating": "yes", "toilets:wheelchair": "yes", "website": "https://www.tsv-rintheim.de/index.php/rintheimer-stuben", "wheelchair": "yes"}}, {"type": "node", "id": 369736690, "lat": 48.9965407, "lon": 8.4558744, "tags": {"addr:city": "Karlsruhe", "addr:country": "DE", "addr:housenumber": "1", "addr:postcode": "76227", "addr:street": "Gudrunstra\u00dfe", "amenity": "restaurant", "check_date:opening_hours": "2025-03-24", "contact:fax": "+49 721 46713931", "contact:instagram": "https://www.instagram.com/mammamkarlsruhe/", "contact:phone": "+49 721 46713929", "contact:website": "https://mammam-karlsruhe.eatbu.com/", "cuisine": "vietnamese", "diet:vegetarian": "yes", "indoor_seating": "yes", "name": "Mam Mam", "opening_hours": "Mo-Fr 11:30-15:00,17:00-22:30; Sa 17:00-22:30; Su,PH 12:00-15:00,17:00-22:30", "outdoor_seating": "no", "payment:girocard": "yes", "takeaway": "yes", "wheelchair": "no"}}, {"type": "node", "id": 369736728, "lat": 48.997854, "lon": 8.4574763, "tags": {"addr:city": "Karlsruhe", "addr:country": "DE", "addr:housenumber": "30", "addr:postcode": "76227", "addr:street": "Raiherwiesenstra\u00dfe", "addr:suburb": "Durlach", "amenity": "restaurant", "cuisine": "asian", "diet:vegetarian": "yes", "email": "info@bambus-garten.com", "indoor_seating": "yes", "name": "Bambus-Garten", "opening_hours": "Mo-Sa 17:30-22:00,11:30-14:30; Su off", "outdoor_seating": "yes", "phone": "+49 721 6803875", "takeaway": "yes", "website": "https://www.bambus-garten.com/", "wheelchair": "yes"}}, {"type": "node", "id": 371078961, "lat": 48.9664884, "lon": 8.4786262, "tags": {"addr:housenumber": "12", "addr:postcode": "76228", "addr:street": "Kirchplatz", "amenity": "restaurant", "cuisine": "italian", "name": "Pizzeria Salento", "opening_hours": "Tu-Su 11:30-14:30,17:30-23:00; Mo off"}}, {"type": "node", "id": 371805509, "lat": 49.0255045, "lon": 8.4447681, "tags": {"amenity": "restaurant", "name": "Cafeteria", "opening_hours:covid19": "off", "wheelchair": "yes"}}, {"type": "node", "id": 379502542, "lat": 49.0025147, "lon": 8.4639475}, {"type": "node", "id": 379502550, "lat": 49.0023442, "lon": 8.4641088}, {"type": "node", "id": 381526384, "lat": 48.9954913, "lon": 8.4543283, "tags": {"addr:city": "Karlsruhe", "addr:country": "DE", "addr:housenumber": "6", "addr:postcode": "76227", "addr:street": "Lissenstra\u00dfe", "amenity": "restaurant", "cuisine": "italian", "delivery": "yes", "level": "0", "name": "Pizza Gi\u00f3Sof\u00ed", "opening_hours": "Tu-Th 11:00-14:00,17:30-21:45; Fr 11:00-14:00,17:30-22:45; Sa 17:30-22:45; Su 17:30-21:45", "opening_hours:kitchen": "Tu-Fr 11:00-14:00,17:30-22:00; Sa,Su 17:30-22:30; Mo off", "website": "https://pizza-giosofi.de/"}}, {"type": "node", "id": 388457183, "lat": 49.0355102, "lon": 8.4440419}, {"type": "node", "id": 388457184, "lat": 49.0353035, "lon": 8.4438337}, {"type": "node", "id": 388457185, "lat": 49.0349141, "lon": 8.4447332}, {"type": "node", "id": 388457186, "lat": 49.0355001, "lon": 8.4453254}, {"type": "node", "id": 388457187, "lat": 49.035684, "lon": 8.4442159}, {"type": "node", "id": 388457189, "lat": 49.0355849, "lon": 8.4444416}, {"type": "node", "id": 388457190, "lat": 49.0356452, "lon": 8.4445024}, {"type": "node", "id": 388457191, "lat": 49.0354522, "lon": 8.4449484}, {"type": "node", "id": 388457192, "lat": 49.0351616, "lon": 8.444656}, {"type": "node", "id": 388457193, "lat": 49.0353546, "lon": 8.4442096}, {"type": "node", "id": 388457194, "lat": 49.0354148, "lon": 8.4442701}, {"type": "node", "id": 389014907, "lat": 48.9541442, "lon": 8.5089433, "tags": {"amenity": "restaurant", "diet:vegan": "no", "diet:vegetarian": "yes", "name": "Sonne", "opening_hours": "Mo-Sa 17:30+; Su,PH off", "tourism": "hotel", "website": "https://www.sonne-karlsruhe.de/", "wheelchair": "no"}}, {"type": "node", "id": 389014911, "lat": 48.9529682, "lon": 8.5100985, "tags": {"addr:city": "Karlsruhe", "addr:housenumber": "21", "addr:postcode": "76228", "addr:street": "Ortsstra\u00dfe", "amenity": "restaurant", "check_date:opening_hours": "2025-12-11", "cuisine": "indian", "diet:vegan": "yes", "diet:vegetarian": "yes", "name": "Haveli Restaurant", "opening_hours:signed": "no", "phone": "+4972149048050", "wheelchair": "no"}}, {"type": "node", "id": 395247771, "lat": 49.0001826, "lon": 8.4795446, "tags": {"addr:city": "Karlsruhe", "addr:housenumber": "21", "addr:postcode": "76227", "addr:street": "Gr\u00f6tzinger Stra\u00dfe", "amenity": "restaurant", "check_date": "2025-06-02", "contact:phone": "+49 721 48467373", "cuisine": "greek", "name": "Brousko", "old_name": "Delphi", "opening_hours:covid19": "We-Mo 11:30-14:30,17:30-23:00; Tu off", "website": "https://brousko.de/", "wheelchair": "no"}}, {"type": "node", "id": 395247776, "lat": 49.0003728, "lon": 8.4798374, "tags": {"addr:city": "Karlsruhe", "addr:housenumber": "23", "addr:postcode": "76227", "addr:street": "Gr\u00f6tzinger Stra\u00dfe", "amenity": "restaurant", "check_date": "2025-06-02", "contact:phone": "+49 721 408839", "cuisine": "indian", "diet:vegan": "yes", "diet:vegetarian": "yes", "indoor_seating": "yes", "name": "Maharani Palace", "opening_hours": "Mo-Su 11:30-14:30,17:30-24:00", "outdoor_seating": "no", "smoking": "no", "website": "http://www.maharani-palace.de/", "website:menu": "http://www.maharani-palace.de/DasEssen_Shorba.htm", "wheelchair": "no"}}, {"type": "node", "id": 406509727, "lat": 49.0005876, "lon": 8.4729704, "tags": {"addr:city": "Karlsruhe", "addr:country": "DE", "addr:housenumber": "24", "addr:postcode": "76227", "addr:street": "Ochsentorstra\u00dfe", "addr:suburb": "Durlach", "amenity": "restaurant", "beer_garden": "yes", "changing_table": "yes", "changing_table:count": "1", "check_date": "2025-12-01", "check_date:opening_hours": "2025-12-01", "contact:email": "kontakt@judys-pflug.de", "contact:phone": "+49 721 1837972", "contact:website": "https://judys-pflug.de/", "cuisine": "regional", "diet:vegan": "yes", "diet:vegetarian": "yes", "internet_access": "wlan", "internet_access:fee": "no", "name": "Judy's Pflug", "opening_hours": "Mo 17:00-24:00, We-Sa 09:00-24:00, Su,PH 10:00-24:00; Tu off", "operator": "Judith Conlon", "outdoor_seating": "yes", "toilets:disposal": "flush", "toilets:unisex": "no", "toilets:wheelchair": "no", "wheelchair": "no"}}, {"type": "node", "id": 410220139, "lat": 48.9903111, "lon": 8.4670655}, {"type": "node", "id": 410220141, "lat": 48.990272, "lon": 8.4672416}, {"type": "node", "id": 410220142, "lat": 48.9900959, "lon": 8.4671508}, {"type": "node", "id": 410220143, "lat": 48.990135, "lon": 8.4669746}, {"type": "node", "id": 410852263, "lat": 48.9917393, "lon": 8.3925603, "tags": {"addr:city": "Karlsruhe", "addr:country": "DE", "addr:housenumber": "24", "addr:postcode": "76135", "addr:street": "Breite Stra\u00dfe", "amenity": "restaurant", "contact:phone": "+49 721 79070620", "contact:website": "https://breitestrasse.yukisushikarlsruhe.de/", "cuisine": "japanese", "level": "0", "name": "Yuki", "opening_hours": "Mo-Fr 11:30-15:00,17:30-23:00; Sa,Su 17:30-23:00", "operator": "Ha Thu Nguyen"}}, {"type": "node", "id": 412731682, "lat": 49.0102011, "lon": 8.3977047, "tags": {"addr:city": "Karlsruhe", "addr:housenumber": "32", "addr:postcode": "76133", "addr:street": "Waldstra\u00dfe", "amenity": "cafe", "brand": "Cafe Extrablatt", "brand:wikidata": "Q1025505", "brand:wikipedia": "de:Cafe extrablatt", "check_date": "2024-11-16", "check_date:smoking": "2024-11-16", "cuisine": "coffee_shop", "email": "karlsruhe@cafe-extrablatt.de", "fax": "+49 721 1518727", "indoor_seating": "yes", "internet_access": "wlan", "internet_access:fee": "no", "level": "0", "name": "Cafe Extrablatt", "opening_hours": "Mo-Su,PH 09:00-24:00", "operator": "Cafe Extrablatt Karlsruhe GmbH", "outdoor_seating": "yes", "payment:girocard": "yes", "phone": "+49 721 1518626", "smoking": "separated", "takeaway": "yes", "toilets:wheelchair": "yes", "website": "https://cafe-extrablatt.de/standorte/details/cafe-extrablatt-karlsruhe", "wheelchair": "yes", "wheelchair:description": "Nicht alle Tische befinden sich auf einer Ebene, manche Tische sind eine Stufe h\u00f6her als der ebenerdige Eingangsbereich. Blindenhunde k\u00f6nnen mitgebracht werden: Ja. Informationshilfen f\u00fcr H\u00f6rbehinderte: Nein. Geb\u00e4rdensprache: Nein. Behinderten-WC: JA."}}, {"type": "node", "id": 413321213, "lat": 48.9639591, "lon": 8.4704409, "tags": {"addr:city": "Karlsruhe", "addr:country": "DE", "addr:housenumber": "1", "addr:postcode": "76228", "addr:street": "Schilling-von-Canstatt-Stra\u00dfe", "addr:suburb": "Hohenwettersbach", "amenity": "restaurant", "cuisine": "italian", "name": "Gatto Nero", "phone": "+49 721 705685", "website": "https://www.mygattonero.de"}}, {"type": "node", "id": 414198043, "lat": 49.0258345, "lon": 8.4130581, "tags": {"addr:city": "Karlsruhe", "addr:country": "DE", "addr:housenumber": "52", "addr:postcode": "76131", "addr:street": "Friedrichstaler Allee", "amenity": "restaurant", "cuisine": "regional", "diet:vegan": "no", "diet:vegetarian": "yes", "name": "DJK Karlsruhe-Ost", "opening_hours": "Tu-Fr 11:00-14:30,17:00-01:00, PH,Sa,Su 11:00-01:00", "phone": "+49 721 751675", "wheelchair": "limited"}}, {"type": "node", "id": 415259454, "lat": 49.0117136, "lon": 8.3981736, "tags": {"amenity": "restaurant", "contact:phone": "+49 7121 25066", "cuisine": "french;regional", "description": "opening hours kitchen Tu\u2013Sa 12:00\u201314:00, 18:00\u201322:00", "description:de": "K\u00fcchen\u00f6ffnungszeiten Di\u2013Sa 12.00\u201314.00, 18.00\u201322.00 Uhr", "name": "Oberl\u00e4nder Weinstube", "opening_hours": "Tu-Sa 12:00-15:00; Su,Mo off, Tu-Sa 18:00-23:00", "operator": "Franke J\u00f6rg Hammer", "website": "https://oberlaender-weinstube.de/", "wheelchair": "no"}}, {"type": "node", "id": 415402483, "lat": 49.0107154, "lon": 8.3976989},